{
  "json_language": "en",
  "country_code": "AF",
  "country_name": "Afghanistan",
  "city_name": "Kunduz",
  "language": [
    "Dari"
  ],
  "lat": 36.7286,
  "lon": 68.8681,
  "currencies": {
    "AFN": {
      "symbol": "؋",
      "name": "Afghan afghani"
    }
  },
  "population": 268893,
  "welcome_message_title": "Welcome to Kunduz",
  "welcome_message_body": "Welcome to Kunduz, a city known for its rich history and beautiful landscapes. We're excited to have you here and we invite you to explore and enjoy all that our charming city has to offer.",
  "welcome_message_image": null,
  "avg_prices": {
    "city": "kunduz",
    "currency": "usd",
    "avg_price_index": 15.822777777777778,
    "prices": {
      "meal": 1.67,
      "meal_for_two": 7.73,
      "fast_food": 2.96,
      "beer": 2.22,
      "coffee": 0.44,
      "soda": 0.34,
      "water_small": 0.15,
      "bus_ticket": 0.22,
      "monthly_pass": 16.67,
      "taxi_start": 0.56,
      "taxi_km": 1.11,
      "taxi_waiting": 2.22,
      "gasoline": 0.67,
      "mobile_tariff": 0.04,
      "internet": 222.26,
      "fitness": 11.11,
      "tennis": 11.11,
      "cinema": 3.33
    }
  },
  "emergency_numbers": {
    "general": "112"
  },
  "restaurants": [
    {
      "name": "رستورانت قلب کندز",
      "type": "Afghan Restaurant",
      "description": "رستورانت قلب کندز is a afghan restaurant located in クンドゥーズ.",
      "address": "クンドゥーズ",
      "tel": null,
      "location": {
        "lat": 36.728773,
        "lon": 68.869311
      }
    },
    {
      "name": "شیرزی رستورانت و مهمان خانه با",
      "type": "Afghan Restaurant",
      "description": "شیرزی رستورانت و مهمان خانه با is a afghan restaurant located in كندز.",
      "address": "كندز",
      "tel": null,
      "location": {
        "lat": 36.727938,
        "lon": 68.866126
      }
    },
    {
      "name": "Restaurant Ghulam Hussain",
      "type": "Afghan Restaurant",
      "description": "Restaurant Ghulam Hussain is a afghan restaurant located in كندز.",
      "address": "كندز",
      "tel": null,
      "location": {
        "lat": 36.722581,
        "lon": 68.868841
      }
    },
    {
      "name": "Kob Fondues",
      "type": "Sandwich Spot",
      "description": "Kob Fondues is a sandwich spot located in the city.",
      "address": "",
      "tel": null,
      "location": {
        "lat": 36.660378695175105,
        "lon": 68.90378013446188
      }
    },
    {
      "name": "Burrito Amor",
      "type": "Mexican Restaurant",
      "description": "Burrito Amor is a mexican restaurant located in the city.",
      "address": "Av. Tulum Mz 05-Lote 03, Tulum Centro, Centro, 77760 Tulum, Q.R., Mexico",
      "tel": null,
      "location": {
        "lat": 36.766283536586734,
        "lon": 69.0090537071228
      }
    }
  ],
  "_meta": {
    "generated_at": "2025-08-04T11:36:36.895449Z",
    "env": "development",
    "source": "justarrived-generator"
  }
}