{
  "json_language": "en",
  "country_code": "BF",
  "country_name": "Burkina Faso",
  "city_name": "Koudougou",
  "language": [
    "French"
  ],
  "lat": 12.25,
  "lon": -2.3667,
  "currencies": {
    "XOF": {
      "symbol": "Fr",
      "name": "West African CFA franc"
    }
  },
  "population": 160207,
  "welcome_message_title": "Welcome to Koudougou",
  "welcome_message_body": "Welcome to Koudougou, where vibrant markets, rich cultural heritage, and friendly locals await you. Take your time to explore our city and immerse yourself in its charm. Enjoy your stay!",
  "welcome_message_image": null,
  "avg_prices": {
    "city": "koudougou",
    "currency": "usd",
    "avg_price_index": 6.520526315789474,
    "prices": {
      "meal": 0.79,
      "meal_for_two": 23.75,
      "fast_food": 2.06,
      "beer": 1.11,
      "imported_beer": 0.87,
      "coffee": 1.58,
      "soda": 0.59,
      "water_small": 0.48,
      "bus_ticket": 0.32,
      "monthly_pass": 14.25,
      "taxi_start": 0.48,
      "taxi_km": 1.03,
      "taxi_waiting": 6.33,
      "gasoline": 1.03,
      "mobile_tariff": 0.26,
      "internet": 35.31,
      "fitness": 27.71,
      "tennis": 3.96,
      "cinema": 1.98
    }
  },
  "emergency_numbers": {
    "general": "112"
  },
  "restaurants": [
    {
      "name": "Le Kilimandjaro",
      "type": "Restaurant",
      "description": "Le Kilimandjaro is a restaurant located in the city.",
      "address": "",
      "tel": null,
      "location": {
        "lat": 12.248323019609453,
        "lon": -2.3545830438163287
      }
    },
    {
      "name": "Koudougou",
      "type": "African Restaurant",
      "description": "Koudougou is a african restaurant located in the city.",
      "address": "",
      "tel": null,
      "location": {
        "lat": 12.240510405988077,
        "lon": -2.379436205769448
      }
    },
    {
      "name": "Croisic",
      "type": "African Restaurant",
      "description": "Croisic is a african restaurant located in the city.",
      "address": "",
      "tel": null,
      "location": {
        "lat": 12.25503,
        "lon": -2.337824
      }
    },
    {
      "name": "Croisic",
      "type": "African Restaurant",
      "description": "Croisic is a african restaurant located in the city.",
      "address": "",
      "tel": null,
      "location": {
        "lat": 12.255628,
        "lon": -2.33407
      }
    },
    {
      "name": "L'Abidjannaise",
      "type": "African Restaurant",
      "description": "L'Abidjannaise is a african restaurant located in the city.",
      "address": "",
      "tel": null,
      "location": {
        "lat": 12.311425,
        "lon": -2.461798
      }
    }
  ],
  "_meta": {
    "generated_at": "2025-08-04T11:39:52.909620Z",
    "env": "development",
    "source": "justarrived-generator"
  }
}