{
  "json_language": "en",
  "country_code": "BW",
  "country_name": "Botswana",
  "city_name": "Francistown",
  "language": [
    "English"
  ],
  "lat": -21.1736,
  "lon": 27.5125,
  "currencies": {
    "BWP": {
      "symbol": "P",
      "name": "Botswana pula"
    }
  },
  "population": 103417,
  "welcome_message_title": "Welcome to Francistown",
  "welcome_message_body": "Welcome to Francistown, Botswana! Known for its vibrant markets, rich history, and friendly locals, we invite you to explore and enjoy the charm of this bustling city.",
  "welcome_message_image": null,
  "avg_prices": {
    "city": "francistown",
    "currency": "usd",
    "avg_price_index": 7.290526315789474,
    "prices": {
      "meal": 7.69,
      "meal_for_two": 30.75,
      "fast_food": 3.84,
      "beer": 1.15,
      "imported_beer": 1.15,
      "coffee": 1.54,
      "soda": 0.61,
      "water_small": 0.26,
      "bus_ticket": 0.5,
      "monthly_pass": 21.68,
      "taxi_start": 0.46,
      "taxi_km": 2.31,
      "taxi_waiting": 3.84,
      "gasoline": 0.77,
      "mobile_tariff": 0.08,
      "internet": 13.84,
      "fitness": 36.59,
      "tennis": 6.46,
      "cinema": 5.0
    }
  },
  "emergency_numbers": {
    "general": "112"
  },
  "restaurants": [
    {
      "name": "Nando's",
      "type": "Portuguese Restaurant",
      "description": "Nando's is a portuguese restaurant located in Francistown.",
      "address": "Cnr St Patrick & Guy St, Shop 30, Galo Mall, Francistown",
      "tel": "241 2252",
      "location": {
        "lat": -21.17013686859864,
        "lon": 27.513703806711067
      }
    },
    {
      "name": "Golden Hill Spur Steak Ranch",
      "type": "Steakhouse",
      "description": "Golden Hill Spur Steak Ranch is a steakhouse located in Francistown.",
      "address": "Francistown",
      "tel": null,
      "location": {
        "lat": -21.17279152301284,
        "lon": 27.51299856403754
      }
    },
    {
      "name": "Pie city(Nswazwi Mall)",
      "type": "Restaurant",
      "description": "Pie city(Nswazwi Mall) is a restaurant located in the city.",
      "address": "",
      "tel": null,
      "location": {
        "lat": -21.172323,
        "lon": 27.511175
      }
    },
    {
      "name": "Debonairs Pizza",
      "type": "Pizzeria",
      "description": "Debonairs Pizza is a pizzeria located in Francistown.",
      "address": "Swap Complex (Guy St), Francistown",
      "tel": null,
      "location": {
        "lat": -21.170845981347043,
        "lon": 27.51153588294983
      }
    },
    {
      "name": "KFC",
      "type": "Fast Food Restaurant",
      "description": "KFC is a fast food restaurant located in Francistown.",
      "address": "Nswazwi Mall, Francistown",
      "tel": null,
      "location": {
        "lat": -21.17198651527002,
        "lon": 27.509915828704834
      }
    }
  ],
  "_meta": {
    "generated_at": "2025-08-04T11:44:02.210147Z",
    "env": "development",
    "source": "justarrived-generator"
  }
}