{
  "json_language": "en",
  "country_code": "BZ",
  "country_name": "Belize",
  "city_name": "San Pedro",
  "language": [
    "Belizean Creole"
  ],
  "lat": 17.9214,
  "lon": -87.9611,
  "currencies": {
    "BZD": {
      "symbol": "$",
      "name": "Belize dollar"
    }
  },
  "population": 11767,
  "welcome_message_title": "Welcome to San Pedro",
  "welcome_message_body": "\"Welcome to San Pedro, a charming coastal town known for its vibrant culture and stunning beaches. Get ready to immerse yourself in its beauty and experience all it has to offer. Enjoy your stay!\"",
  "welcome_message_image": null,
  "avg_prices": {
    "city": "san pedro",
    "currency": "usd",
    "avg_price_index": 6.737368421052631,
    "prices": {
      "meal": 10.0,
      "meal_for_two": 35.0,
      "fast_food": 3.5,
      "beer": 1.0,
      "imported_beer": 2.0,
      "coffee": 1.3,
      "soda": 1.0,
      "water_small": 1.1,
      "bus_ticket": 0.23,
      "monthly_pass": 26.09,
      "taxi_start": 1.11,
      "taxi_km": 0.5,
      "taxi_waiting": 2.87,
      "gasoline": 1.03,
      "mobile_tariff": 0.28,
      "internet": 11.0,
      "fitness": 22.0,
      "tennis": 6.0,
      "cinema": 2.0
    }
  },
  "emergency_numbers": {
    "general": "112"
  },
  "restaurants": [
    {
      "name": "El Parronal",
      "type": "Sandwich Spot",
      "description": "El Parronal is a sandwich spot located in San Pedro.",
      "address": "San Pedro, Metropolitana de Santiago de Chile",
      "tel": null,
      "location": {
        "lat": -33.917876,
        "lon": -71.458689
      }
    },
    {
      "name": "La Rosita de Panchito",
      "type": "Restaurant",
      "description": "La Rosita de Panchito is a restaurant located in the city.",
      "address": "",
      "tel": null,
      "location": {
        "lat": -33.92441053395079,
        "lon": -71.46428400344836
      }
    },
    {
      "name": "Zafari",
      "type": "Restaurant",
      "description": "Zafari is a restaurant located in San Pedro.",
      "address": "San Pedro, Metropolitana de Santiago de Chile",
      "tel": null,
      "location": {
        "lat": -33.909019926098544,
        "lon": -71.4146906328261
      }
    },
    {
      "name": "restaurant el buzo",
      "type": "Restaurant",
      "description": "restaurant el buzo is a restaurant located in the city.",
      "address": "",
      "tel": null,
      "location": {
        "lat": -33.90534973144531,
        "lon": -71.4124984741211
      }
    },
    {
      "name": "Servifood Restaurante",
      "type": "Restaurant",
      "description": "Servifood Restaurante is a restaurant located in the city.",
      "address": "",
      "tel": null,
      "location": {
        "lat": -33.916969299316406,
        "lon": -71.41629028320312
      }
    }
  ],
  "airports": null,
  "_meta": {
    "generated_at": "2025-08-04T19:18:40.197751Z",
    "env": "development",
    "source": "justarrived-generator"
  }
}