{
  "json_language": "en",
  "country_code": "CL",
  "country_name": "Chile",
  "city_name": "Osorno",
  "language": [
    "Spanish"
  ],
  "lat": -40.5725,
  "lon": -73.1353,
  "currencies": {
    "CLP": {
      "symbol": "$",
      "name": "Chilean peso"
    }
  },
  "population": 249728,
  "welcome_message_title": "Welcome to Osorno",
  "welcome_message_body": "Welcome to Osorno, Chile! Get ready to be captivated by the city's picturesque landscapes, vibrant culture, and delicious cuisine. We invite you to explore and enjoy everything Osorno has to offer during your visit.",
  "welcome_message_image": null,
  "avg_prices": {
    "city": "osorno",
    "currency": "usd",
    "avg_price_index": 7.844736842105264,
    "prices": {
      "meal": 3.83,
      "meal_for_two": 30.11,
      "fast_food": 3.28,
      "beer": 2.19,
      "imported_beer": 3.83,
      "coffee": 1.64,
      "soda": 1.09,
      "water_small": 1.09,
      "bus_ticket": 0.49,
      "monthly_pass": 26.27,
      "taxi_start": 0.44,
      "taxi_km": 1.31,
      "taxi_waiting": 14.78,
      "gasoline": 1.12,
      "mobile_tariff": 0.11,
      "internet": 16.42,
      "fitness": 30.11,
      "tennis": 5.47,
      "cinema": 5.47
    }
  },
  "emergency_numbers": {
    "ambulance": "131",
    "fire": "132",
    "police": "133"
  },
  "restaurants": [
    {
      "name": "Restaurant El Galpón",
      "type": "BBQ Joint",
      "description": "Restaurant El Galpón is a bbq joint located in the city.",
      "address": "",
      "tel": null,
      "location": {
        "lat": -40.57649615069866,
        "lon": -73.13258692262563
      }
    },
    {
      "name": "Wufher",
      "type": "Gastropub",
      "description": "Wufher is a gastropub located in Osorno.",
      "address": "Eleuterio Ramírez 959, Osorno, Los Lagos",
      "tel": "5664201313",
      "location": {
        "lat": -40.573405698468875,
        "lon": -73.13394559919823
      }
    },
    {
      "name": "Panadería Galaz",
      "type": "Bakery",
      "description": "Panadería Galaz is a bakery located in Osorno.",
      "address": "Los Carrera 1000 (Cochrane), Osorno, Los Lagos",
      "tel": "(64) 223 2174",
      "location": {
        "lat": -40.57206343640707,
        "lon": -73.133321679066
      }
    },
    {
      "name": "Nini",
      "type": "Burger Joint",
      "description": "Nini is a burger joint located in Osorno.",
      "address": "Osorno, Los Lagos",
      "tel": null,
      "location": {
        "lat": -40.571763289937216,
        "lon": -73.14032517711796
      }
    },
    {
      "name": "Café Nostro",
      "type": "Café",
      "description": "Café Nostro is a café located in the city.",
      "address": "O'Higgins 1220",
      "tel": "(64) 231 3202",
      "location": {
        "lat": -40.581382079202,
        "lon": -73.13584339677008
      }
    }
  ],
  "_meta": {
    "generated_at": "2025-08-04T11:37:03.036371Z",
    "env": "development",
    "source": "justarrived-generator"
  }
}