{
  "json_language": "en",
  "country_code": "CM",
  "country_name": "Cameroon",
  "city_name": "Bafoussam",
  "language": [
    "English"
  ],
  "lat": 5.4667,
  "lon": 10.4167,
  "currencies": {
    "XAF": {
      "symbol": "Fr",
      "name": "Central African CFA franc"
    }
  },
  "population": 600000,
  "welcome_message_title": "Welcome to Bafoussam",
  "welcome_message_body": "Welcome to Bafoussam, known for its beautiful landscapes and vibrant marketplaces. We hope you enjoy your time here and take in all the charm this city has to offer. Happy exploring!",
  "welcome_message_image": null,
  "avg_prices": {
    "city": "bafoussam",
    "currency": "usd",
    "avg_price_index": 6.902105263157895,
    "prices": {
      "meal": 3.96,
      "meal_for_two": 31.67,
      "fast_food": 3.17,
      "beer": 1.11,
      "imported_beer": 1.58,
      "coffee": 0.87,
      "soda": 0.74,
      "water_small": 0.4,
      "bus_ticket": 6.33,
      "monthly_pass": 3.96,
      "taxi_start": 0.4,
      "taxi_km": 0.4,
      "taxi_waiting": 3.96,
      "gasoline": 1.02,
      "mobile_tariff": 0.11,
      "internet": 44.54,
      "fitness": 15.83,
      "tennis": 3.17,
      "cinema": 7.92
    }
  },
  "emergency_numbers": {
    "general": "112"
  },
  "restaurants": [
    {
      "name": "Bouvick",
      "type": "Snack Place",
      "description": "Bouvick is a snack place located in Bafoussam.",
      "address": "Gabon Bar, Bafoussam",
      "tel": null,
      "location": {
        "lat": 5.4649696,
        "lon": 10.421075
      }
    },
    {
      "name": "Paix Plus",
      "type": "Bakery",
      "description": "Paix Plus is a bakery located in the city.",
      "address": "",
      "tel": null,
      "location": {
        "lat": 5.469181642080739,
        "lon": 10.42207225965815
      }
    },
    {
      "name": "La Sawette",
      "type": "African Restaurant",
      "description": "La Sawette is a african restaurant located in the city.",
      "address": "",
      "tel": null,
      "location": {
        "lat": 5.477015,
        "lon": 10.417476
      }
    },
    {
      "name": "Restaurant Cafe Grand Mère",
      "type": "African Restaurant",
      "description": "Restaurant Cafe Grand Mère is a african restaurant located in Bafoussam.",
      "address": "Bafoussam",
      "tel": null,
      "location": {
        "lat": 5.477044,
        "lon": 10.416086
      }
    },
    {
      "name": "Boulangerie Les Amis Nguimatio",
      "type": "Bakery",
      "description": "Boulangerie Les Amis Nguimatio is a bakery located in Bafoussam.",
      "address": "Diengdam, Bafoussam",
      "tel": null,
      "location": {
        "lat": 5.4613247,
        "lon": 10.427856
      }
    }
  ],
  "_meta": {
    "generated_at": "2025-08-04T11:33:48.503888Z",
    "env": "development",
    "source": "justarrived-generator"
  }
}