{
  "json_language": "en",
  "country_code": "CN",
  "country_name": "China",
  "city_name": "Fukang",
  "language": [
    "Chinese"
  ],
  "lat": 44.1646,
  "lon": 87.9536,
  "currencies": {
    "CNY": {
      "symbol": "¥",
      "name": "Chinese yuan"
    }
  },
  "population": 165006,
  "welcome_message_title": "Welcome to Fukang",
  "welcome_message_body": "Welcome to Fukang, a charming city known for its stunning natural landscapes and warm hospitality. We invite you to explore our beautiful city and enjoy all it has to offer.",
  "welcome_message_image": null,
  "avg_prices": {
    "city": "fukang",
    "currency": "usd",
    "avg_price_index": 4.811578947368421,
    "prices": {
      "meal": 4.19,
      "meal_for_two": 20.95,
      "fast_food": 4.4,
      "beer": 1.12,
      "imported_beer": 2.1,
      "coffee": 3.0,
      "soda": 0.42,
      "water_small": 0.28,
      "bus_ticket": 0.14,
      "monthly_pass": 4.19,
      "taxi_start": 1.4,
      "taxi_km": 0.24,
      "taxi_waiting": 6.98,
      "gasoline": 1.12,
      "mobile_tariff": 0.03,
      "internet": 13.97,
      "fitness": 13.97,
      "tennis": 8.38,
      "cinema": 4.54
    }
  },
  "emergency_numbers": {
    "ambulance": "120",
    "fire": "119",
    "police": "110"
  },
  "restaurants": [
    {
      "name": "寿娟烤包子",
      "type": "Xinjiang Restaurant",
      "description": "寿娟烤包子 is a xinjiang restaurant located in 昌吉市.",
      "address": "昌吉市, 新疆",
      "tel": null,
      "location": {
        "lat": 44.156112,
        "lon": 87.956205
      }
    },
    {
      "name": "老丁家酱牛骨辣子鸡",
      "type": "Chinese Restaurant",
      "description": "老丁家酱牛骨辣子鸡 is a chinese restaurant located in 昌吉市.",
      "address": "昌吉市, 新疆",
      "tel": null,
      "location": {
        "lat": 44.154776,
        "lon": 87.957361
      }
    },
    {
      "name": "美丽的早晨风味餐厅",
      "type": "Xinjiang Restaurant",
      "description": "美丽的早晨风味餐厅 is a xinjiang restaurant located in 昌吉市.",
      "address": "昌吉市, 新疆",
      "tel": null,
      "location": {
        "lat": 44.14839,
        "lon": 87.952159
      }
    },
    {
      "name": "悠悠乐农家乐",
      "type": "Chinese Restaurant",
      "description": "悠悠乐农家乐 is a chinese restaurant located in 昌吉市.",
      "address": "昌吉市, 新疆",
      "tel": null,
      "location": {
        "lat": 44.12251,
        "lon": 88.047916
      }
    },
    {
      "name": "亚克西农家乐",
      "type": "Xinjiang Restaurant",
      "description": "亚克西农家乐 is a xinjiang restaurant located in 昌吉市.",
      "address": "昌吉市, 新疆",
      "tel": null,
      "location": {
        "lat": 44.121944,
        "lon": 88.0477
      }
    }
  ],
  "_meta": {
    "generated_at": "2025-08-04T11:39:37.859944Z",
    "env": "development",
    "source": "justarrived-generator"
  }
}