{
  "json_language": "en",
  "country_code": "CN",
  "country_name": "China",
  "city_name": "Hengnan",
  "language": [
    "Chinese"
  ],
  "lat": 22.5348,
  "lon": 113.2491,
  "currencies": {
    "CNY": {
      "symbol": "¥",
      "name": "Chinese yuan"
    }
  },
  "population": 101415,
  "welcome_message_title": "Welcome to Hengnan",
  "welcome_message_body": "Welcome to Hengnan, China! Get ready to explore the rich history and beautiful natural scenery of this charming city. We hope you enjoy your time here and make unforgettable memories.",
  "welcome_message_image": null,
  "avg_prices": {
    "city": "hengnan",
    "currency": "usd",
    "avg_price_index": 5.118421052631579,
    "prices": {
      "meal": 3.49,
      "meal_for_two": 16.76,
      "fast_food": 5.94,
      "beer": 1.75,
      "imported_beer": 2.79,
      "coffee": 2.79,
      "soda": 0.44,
      "water_small": 0.47,
      "bus_ticket": 0.28,
      "monthly_pass": 9.08,
      "taxi_start": 1.68,
      "taxi_km": 0.37,
      "taxi_waiting": 4.19,
      "gasoline": 1.12,
      "mobile_tariff": 0.01,
      "internet": 14.67,
      "fitness": 17.45,
      "tennis": 7.68,
      "cinema": 6.29
    }
  },
  "emergency_numbers": {
    "ambulance": "120",
    "fire": "119",
    "police": "110"
  },
  "restaurants": [
    {
      "name": "McDonald's 麦当劳",
      "type": "Fast Food Restaurant",
      "description": "McDonald's 麦当劳 is a fast food restaurant located in 石岐街道.",
      "address": "石岐街道, 广东",
      "tel": "400 920 0205",
      "location": {
        "lat": 22.593973,
        "lon": 113.235998
      }
    },
    {
      "name": "M-KİNG HOTEL V.İ.P ROOM",
      "type": "Chinese Aristocrat Restaurant",
      "description": "M-KİNG HOTEL V.İ.P ROOM is a chinese aristocrat restaurant located in the city.",
      "address": "",
      "tel": null,
      "location": {
        "lat": 22.58250085338284,
        "lon": 113.2218730705851
      }
    },
    {
      "name": "Italy Square",
      "type": "Pizzeria",
      "description": "Italy Square is a pizzeria located in the city.",
      "address": "",
      "tel": null,
      "location": {
        "lat": 22.513479882497784,
        "lon": 113.37578131398334
      }
    },
    {
      "name": "McDonald's (麦当劳)",
      "type": "Fast Food Restaurant",
      "description": "McDonald's (麦当劳) is a fast food restaurant located in the city.",
      "address": "朝阳汇点, 广东",
      "tel": "400 920 0205",
      "location": {
        "lat": 22.618012971274922,
        "lon": 113.28426752036133
      }
    },
    {
      "name": "香山家宴",
      "type": "Cantonese Restaurant",
      "description": "香山家宴 is a cantonese restaurant located in 中山市.",
      "address": "彩虹大道167号, 中山市, 广东",
      "tel": "0760 8511 7878",
      "location": {
        "lat": 22.575744606525152,
        "lon": 113.31713439937792
      }
    }
  ],
  "_meta": {
    "generated_at": "2025-08-04T11:44:16.962883Z",
    "env": "development",
    "source": "justarrived-generator"
  }
}