{
  "json_language": "en",
  "country_code": "CN",
  "country_name": "China",
  "city_name": "Jingcheng",
  "language": [
    "Chinese"
  ],
  "lat": 32.009,
  "lon": 120.263,
  "currencies": {
    "CNY": {
      "symbol": "¥",
      "name": "Chinese yuan"
    }
  },
  "population": 663408,
  "welcome_message_title": "Welcome to Jingcheng",
  "welcome_message_body": "Welcome to Jingcheng, China! This charming city is known for its rich history, delicious cuisine, and stunning landscapes. We invite you to explore and enjoy all that Jingcheng has to offer during your visit.",
  "welcome_message_image": null,
  "avg_prices": {
    "city": "jingcheng",
    "currency": "usd",
    "avg_price_index": 5.74578947368421,
    "prices": {
      "meal": 2.79,
      "meal_for_two": 22.35,
      "fast_food": 4.89,
      "beer": 0.84,
      "imported_beer": 2.1,
      "coffee": 3.2,
      "soda": 0.38,
      "water_small": 0.28,
      "bus_ticket": 0.28,
      "monthly_pass": 7.92,
      "taxi_start": 1.4,
      "taxi_km": 0.35,
      "taxi_waiting": 4.19,
      "gasoline": 1.14,
      "mobile_tariff": 0.02,
      "internet": 13.97,
      "fitness": 25.61,
      "tennis": 7.68,
      "cinema": 9.78
    }
  },
  "emergency_numbers": {
    "ambulance": "120",
    "fire": "119",
    "police": "110"
  },
  "restaurants": [
    {
      "name": "鸿运楼",
      "type": "Restaurant",
      "description": "鸿运楼 is a restaurant located in Jingcheng.",
      "address": "南环路 (建安路), 靖江, 江苏",
      "tel": null,
      "location": {
        "lat": 32.00460110315263,
        "lon": 120.25083056114555
      }
    },
    {
      "name": "扬子江大酒店",
      "type": "Chinese Restaurant",
      "description": "扬子江大酒店 is a chinese restaurant located in 靖江市.",
      "address": "江苏省泰州市靖江市中州西路28号, 靖江市, 江苏",
      "tel": "0523 8480 8888",
      "location": {
        "lat": 31.99978,
        "lon": 120.250946
      }
    },
    {
      "name": "巴罗克冰激凌",
      "type": "Indian Restaurant",
      "description": "巴罗克冰激凌 is a indian restaurant located in 泰州市.",
      "address": "泰州市, 江苏",
      "tel": null,
      "location": {
        "lat": 32.03520211960226,
        "lon": 120.27714523043532
      }
    },
    {
      "name": "锦绣山庄",
      "type": "Chinese Restaurant",
      "description": "锦绣山庄 is a chinese restaurant located in 泰州市.",
      "address": "泰州市, 江苏",
      "tel": "139 0142 6162",
      "location": {
        "lat": 32.07467,
        "lon": 120.304728
      }
    },
    {
      "name": "KFC (肯德基)",
      "type": "Fast Food Restaurant",
      "description": "KFC (肯德基) is a fast food restaurant located in 无锡.",
      "address": "印象汇一楼西侧, 无锡, 江苏",
      "tel": "400 882 3823",
      "location": {
        "lat": 31.924989037747714,
        "lon": 120.29221100202685
      }
    }
  ],
  "_meta": {
    "generated_at": "2025-08-04T11:33:34.186646Z",
    "env": "development",
    "source": "justarrived-generator"
  }
}