{
  "json_language": "en",
  "country_code": "CN",
  "country_name": "China",
  "city_name": "Kuytun",
  "language": [
    "Chinese"
  ],
  "lat": 44.4264,
  "lon": 84.9032,
  "currencies": {
    "CNY": {
      "symbol": "¥",
      "name": "Chinese yuan"
    }
  },
  "population": 166261,
  "welcome_message_title": "Welcome to Kuytun",
  "welcome_message_body": "Welcome to Kuytun, a charming city known for its rich history and stunning natural landscapes. We invite you to explore and enjoy all that this beautiful city has to offer during your visit.",
  "welcome_message_image": null,
  "avg_prices": {
    "city": "kuytun",
    "currency": "usd",
    "avg_price_index": 5.2163157894736845,
    "prices": {
      "meal": 4.19,
      "meal_for_two": 20.95,
      "fast_food": 4.19,
      "beer": 1.12,
      "imported_beer": 2.1,
      "coffee": 2.1,
      "soda": 0.42,
      "water_small": 0.21,
      "bus_ticket": 0.14,
      "monthly_pass": 4.19,
      "taxi_start": 1.4,
      "taxi_km": 0.25,
      "taxi_waiting": 5.03,
      "gasoline": 1.12,
      "mobile_tariff": 0.02,
      "internet": 16.76,
      "fitness": 13.97,
      "tennis": 8.38,
      "cinema": 12.57
    }
  },
  "emergency_numbers": {
    "ambulance": "120",
    "fire": "119",
    "police": "110"
  },
  "restaurants": [
    {
      "name": "KFC 肯德基",
      "type": "Fast Food Restaurant",
      "description": "KFC 肯德基 is a fast food restaurant located in 奎屯市.",
      "address": "奎屯市, 新疆",
      "tel": "400 920 8801",
      "location": {
        "lat": 44.424339,
        "lon": 84.905569
      }
    },
    {
      "name": "鑫潤德",
      "type": "Seafood Restaurant",
      "description": "鑫潤德 is a seafood restaurant located in Ili.",
      "address": "Ili, 新疆",
      "tel": null,
      "location": {
        "lat": 44.416135,
        "lon": 84.901455
      }
    },
    {
      "name": "王飞新疆菜·大盘鸡烧烤",
      "type": "Restaurant",
      "description": "王飞新疆菜·大盘鸡烧烤 is a restaurant located in 伊犁哈萨克自治州.",
      "address": "伊犁哈萨克自治州, 新疆",
      "tel": null,
      "location": {
        "lat": 44.442443,
        "lon": 84.90439
      }
    },
    {
      "name": "藍灣一號自助火鍋城",
      "type": "Hotpot Restaurant",
      "description": "藍灣一號自助火鍋城 is a hotpot restaurant located in Ili.",
      "address": "Ili, 新疆",
      "tel": null,
      "location": {
        "lat": 44.441384,
        "lon": 84.869055
      }
    },
    {
      "name": "達吾提餐廳",
      "type": "Restaurant",
      "description": "達吾提餐廳 is a restaurant located in Karamay.",
      "address": "Karamay, 新疆",
      "tel": null,
      "location": {
        "lat": 44.317536,
        "lon": 84.886892
      }
    }
  ],
  "_meta": {
    "generated_at": "2025-08-04T11:39:35.287622Z",
    "env": "development",
    "source": "justarrived-generator"
  }
}