{
  "json_language": "en",
  "country_code": "CN",
  "country_name": "China",
  "city_name": "Nantang",
  "language": [
    "Chinese"
  ],
  "lat": 22.4986,
  "lon": 113.531,
  "currencies": {
    "CNY": {
      "symbol": "¥",
      "name": "Chinese yuan"
    }
  },
  "population": 108190,
  "welcome_message_title": "Welcome to Nantang",
  "welcome_message_body": "Welcome to Nantang, China! Get ready to immerse yourself in the city's rich history, beautiful architecture, and delicious cuisine. We invite you to explore and enjoy all that Nantang has to offer.",
  "welcome_message_image": null,
  "avg_prices": {
    "city": "nantang",
    "currency": "usd",
    "avg_price_index": 5.928421052631579,
    "prices": {
      "meal": 2.79,
      "meal_for_two": 27.94,
      "fast_food": 5.59,
      "beer": 0.98,
      "imported_beer": 2.3,
      "coffee": 3.41,
      "soda": 0.44,
      "water_small": 0.26,
      "bus_ticket": 0.14,
      "monthly_pass": 8.38,
      "taxi_start": 1.4,
      "taxi_km": 0.35,
      "taxi_waiting": 4.61,
      "gasoline": 1.17,
      "mobile_tariff": 0.03,
      "internet": 16.76,
      "fitness": 16.3,
      "tennis": 14.2,
      "cinema": 5.59
    }
  },
  "emergency_numbers": {
    "ambulance": "120",
    "fire": "119",
    "police": "110"
  },
  "restaurants": [
    {
      "name": "KFC (肯德基)",
      "type": "Fast Food Restaurant",
      "description": "KFC (肯德基) is a fast food restaurant located in 石岐街道.",
      "address": "太阳城, 石岐街道, 广东",
      "tel": "400 882 3823",
      "location": {
        "lat": 22.551879,
        "lon": 113.479852
      }
    },
    {
      "name": "Pizza Hut (必胜客)",
      "type": "Pizzeria",
      "description": "Pizza Hut (必胜客) is a pizzeria located in 石岐街道.",
      "address": "石岐街道, 广东",
      "tel": "400 812 3123",
      "location": {
        "lat": 22.555375475646724,
        "lon": 113.48214716964532
      }
    },
    {
      "name": "崖口人家",
      "type": "Cantonese Restaurant",
      "description": "崖口人家 is a cantonese restaurant located in the city.",
      "address": "",
      "tel": "0760 8521 7338",
      "location": {
        "lat": 22.448984,
        "lon": 113.57319
      }
    },
    {
      "name": "大家乐海鲜酒家",
      "type": "Seafood Restaurant",
      "description": "大家乐海鲜酒家 is a seafood restaurant located in 石岐街道.",
      "address": "南朗镇南苑路1号, 石岐街道, 广东",
      "tel": null,
      "location": {
        "lat": 22.448996,
        "lon": 113.573493
      }
    },
    {
      "name": "McDonald's (麦当劳)",
      "type": "Fast Food Restaurant",
      "description": "McDonald's (麦当劳) is a fast food restaurant located in 中山市.",
      "address": "东镇大道（金汇豪庭） (张家边东镇分店), 中山市, 广东",
      "tel": "0760 8528 3173",
      "location": {
        "lat": 22.543432154716335,
        "lon": 113.45938716933588
      }
    }
  ],
  "_meta": {
    "generated_at": "2025-08-04T11:43:31.841733Z",
    "env": "development",
    "source": "justarrived-generator"
  }
}