{
  "json_language": "en",
  "country_code": "CN",
  "country_name": "China",
  "city_name": "Puyang Chengguanzhen",
  "language": [
    "Chinese"
  ],
  "lat": 35.7004,
  "lon": 114.98,
  "currencies": {
    "CNY": {
      "symbol": "¥",
      "name": "Chinese yuan"
    }
  },
  "population": 666322,
  "welcome_message_title": "Welcome to Puyang Chengguanzhen",
  "welcome_message_body": "Welcome to Puyang Chengguanzhen, a charming city known for its rich history and vibrant culture. We invite you to explore and enjoy all that this beautiful city has to offer. Have a wonderful stay!",
  "welcome_message_image": null,
  "avg_prices": {
    "city": "puyang chengguanzhen",
    "currency": "usd",
    "avg_price_index": 7.803157894736843,
    "prices": {
      "meal": 1.12,
      "meal_for_two": 22.35,
      "fast_food": 4.89,
      "beer": 0.42,
      "imported_beer": 1.4,
      "coffee": 4.19,
      "soda": 0.49,
      "water_small": 0.25,
      "bus_ticket": 0.14,
      "monthly_pass": 6.15,
      "taxi_start": 0.98,
      "taxi_km": 0.56,
      "taxi_waiting": 3.35,
      "gasoline": 1.15,
      "mobile_tariff": 0.02,
      "internet": 13.97,
      "fitness": 79.15,
      "tennis": 2.79,
      "cinema": 4.89
    }
  },
  "emergency_numbers": {
    "ambulance": "120",
    "fire": "119",
    "police": "110"
  },
  "restaurants": [
    {
      "name": "仟味涮",
      "type": "Restaurant",
      "description": "仟味涮 is a restaurant located in the city.",
      "address": "",
      "tel": "0393 666 8825",
      "location": {
        "lat": 35.7625,
        "lon": 115.0174488
      }
    },
    {
      "name": "McDonald's (麦当劳)",
      "type": "Fast Food Restaurant",
      "description": "McDonald's (麦当劳) is a fast food restaurant located in Fuyang.",
      "address": "黄河路长庆路, Fuyang, 中国",
      "tel": "400 920 0205",
      "location": {
        "lat": 35.77116973585082,
        "lon": 115.05787333993482
      }
    },
    {
      "name": "青岛饺子王 (绿景店)",
      "type": "Chinese Restaurant",
      "description": "青岛饺子王 (绿景店) is a chinese restaurant located in 濮阳市.",
      "address": "Da Qing Rd (Sheng Li Dong Rd), 濮阳市, 河南, 457001",
      "tel": null,
      "location": {
        "lat": 35.75514,
        "lon": 115.066475
      }
    },
    {
      "name": "KFC (肯德基)",
      "type": "Fast Food Restaurant",
      "description": "KFC (肯德基) is a fast food restaurant located in the city.",
      "address": "春天餐厅",
      "tel": "400 882 3823",
      "location": {
        "lat": 35.776187942282974,
        "lon": 115.07554412109947
      }
    },
    {
      "name": "Outback Coffee",
      "type": "Café",
      "description": "Outback Coffee is a café located in the city.",
      "address": "",
      "tel": null,
      "location": {
        "lat": 35.776804,
        "lon": 115.0660035
      }
    }
  ],
  "_meta": {
    "generated_at": "2025-08-04T11:33:32.959557Z",
    "env": "development",
    "source": "justarrived-generator"
  }
}