{
  "json_language": "en",
  "country_code": "CN",
  "country_name": "China",
  "city_name": "Qingzhen",
  "language": [
    "Chinese"
  ],
  "lat": 26.5704,
  "lon": 106.4687,
  "currencies": {
    "CNY": {
      "symbol": "¥",
      "name": "Chinese yuan"
    }
  },
  "population": 467438,
  "welcome_message_title": "Welcome to Qingzhen",
  "welcome_message_body": "Welcome to Qingzhen, China! This charming city is known for its rich history, stunning natural landscapes, and delicious local cuisine. We invite you to explore and enjoy all that Qingzhen has to offer.",
  "welcome_message_image": null,
  "avg_prices": {
    "city": "qingzhen",
    "currency": "usd",
    "avg_price_index": 5.698421052631579,
    "prices": {
      "meal": 3.14,
      "meal_for_two": 18.86,
      "fast_food": 4.89,
      "beer": 0.77,
      "imported_beer": 1.4,
      "coffee": 3.49,
      "soda": 0.4,
      "water_small": 0.28,
      "bus_ticket": 0.28,
      "monthly_pass": 6.98,
      "taxi_start": 1.54,
      "taxi_km": 0.28,
      "taxi_waiting": 3.49,
      "gasoline": 1.14,
      "mobile_tariff": 0.01,
      "internet": 8.94,
      "fitness": 41.9,
      "tennis": 4.89,
      "cinema": 5.59
    }
  },
  "emergency_numbers": {
    "ambulance": "120",
    "fire": "119",
    "police": "110"
  },
  "restaurants": [
    {
      "name": "峰丝味 fengsiwei",
      "type": "Asian Restaurant",
      "description": "峰丝味 fengsiwei is a asian restaurant located in the city.",
      "address": "",
      "tel": null,
      "location": {
        "lat": 26.581757629279632,
        "lon": 106.4641027423088
      }
    },
    {
      "name": "奥贝鲜",
      "type": "BBQ Joint",
      "description": "奥贝鲜 is a bbq joint located in the city.",
      "address": "",
      "tel": null,
      "location": {
        "lat": 26.582003974690302,
        "lon": 106.46438458857308
      }
    },
    {
      "name": "caffè bene",
      "type": "Café",
      "description": "caffè bene is a café located in the city.",
      "address": "",
      "tel": null,
      "location": {
        "lat": 26.582070114318338,
        "lon": 106.46429830906416
      }
    },
    {
      "name": "dico's",
      "type": "Fast Food Restaurant",
      "description": "dico's is a fast food restaurant located in the city.",
      "address": "",
      "tel": "400 663 9797",
      "location": {
        "lat": 26.555331,
        "lon": 106.465176
      }
    },
    {
      "name": "红湖记忆",
      "type": "Guizhou Restaurant",
      "description": "红湖记忆 is a guizhou restaurant located in 清镇市.",
      "address": "红湖加油站左转20米（电力学校旁） (红湖村), 清镇市, 贵州",
      "tel": null,
      "location": {
        "lat": 26.550029,
        "lon": 106.436089
      }
    }
  ],
  "_meta": {
    "generated_at": "2025-08-04T11:34:25.311727Z",
    "env": "development",
    "source": "justarrived-generator"
  }
}