{
  "json_language": "en",
  "country_code": "CN",
  "country_name": "China",
  "city_name": "Tangdong",
  "language": [
    "Chinese"
  ],
  "lat": 25.973,
  "lon": 113.231,
  "currencies": {
    "CNY": {
      "symbol": "¥",
      "name": "Chinese yuan"
    }
  },
  "population": 322990,
  "welcome_message_title": "Welcome to Tangdong",
  "welcome_message_body": "Welcome to Tangdong, China! Get ready to explore our charming city known for its beautiful natural scenery, rich history, and vibrant culture. We invite you to immerse yourself in all that Tangdong has to offer and enjoy your stay to the fullest.",
  "welcome_message_image": null,
  "avg_prices": {
    "city": "tangdong",
    "currency": "usd",
    "avg_price_index": 4.544736842105263,
    "prices": {
      "meal": 2.93,
      "meal_for_two": 17.46,
      "fast_food": 4.19,
      "beer": 0.84,
      "imported_beer": 1.4,
      "coffee": 3.49,
      "soda": 0.44,
      "water_small": 0.28,
      "bus_ticket": 0.28,
      "monthly_pass": 7.92,
      "taxi_start": 1.33,
      "taxi_km": 0.31,
      "taxi_waiting": 6.84,
      "gasoline": 1.14,
      "mobile_tariff": 0.01,
      "internet": 8.63,
      "fitness": 14.55,
      "tennis": 7.68,
      "cinema": 6.63
    }
  },
  "emergency_numbers": {
    "ambulance": "120",
    "fire": "119",
    "police": "110"
  },
  "restaurants": [
    {
      "name": "鸿雁大酒店",
      "type": "Restaurant",
      "description": "鸿雁大酒店 is a restaurant located in the city.",
      "address": "",
      "tel": null,
      "location": {
        "lat": 25.9758308,
        "lon": 113.2345603
      }
    },
    {
      "name": "德克士 Dicos",
      "type": "Fast Food Restaurant",
      "description": "德克士 Dicos is a fast food restaurant located in 郴州市.",
      "address": "郴州市, 湖南",
      "tel": "400 663 9797",
      "location": {
        "lat": 25.976223,
        "lon": 113.238456
      }
    },
    {
      "name": "东江湖游水三文鱼美食城",
      "type": "Restaurant",
      "description": "东江湖游水三文鱼美食城 is a restaurant located in the city.",
      "address": "",
      "tel": null,
      "location": {
        "lat": 25.97993686831823,
        "lon": 113.22511243971142
      }
    },
    {
      "name": "小資味",
      "type": "Restaurant",
      "description": "小資味 is a restaurant located in 郴州市.",
      "address": "郴州市, 湖南, 423402",
      "tel": null,
      "location": {
        "lat": 25.945839,
        "lon": 113.25059
      }
    },
    {
      "name": "东江印象三文鱼",
      "type": "Hunan Restaurant",
      "description": "东江印象三文鱼 is a hunan restaurant located in 唐洞.",
      "address": "唐洞, 湖南, 423400",
      "tel": "186 7051 1556",
      "location": {
        "lat": 25.932388,
        "lon": 113.243528
      }
    }
  ],
  "airports": null,
  "_meta": {
    "generated_at": "2025-08-04T18:07:42.531096Z",
    "env": "development",
    "source": "justarrived-generator"
  }
}