{
  "json_language": "en",
  "country_code": "CN",
  "country_name": "China",
  "city_name": "Wuyishan",
  "language": [
    "Chinese"
  ],
  "lat": 27.7564,
  "lon": 118.0353,
  "currencies": {
    "CNY": {
      "symbol": "¥",
      "name": "Chinese yuan"
    }
  },
  "population": 238000,
  "welcome_message_title": "Welcome to Wuyishan",
  "welcome_message_body": "Welcome to Wuyishan, a city known for its breathtaking natural beauty and rich cultural heritage. We hope you enjoy your time exploring the lush mountains, ancient temples, and serene tea plantations that make this city so charming.",
  "welcome_message_image": null,
  "avg_prices": {
    "city": "wuyishan",
    "currency": "usd",
    "avg_price_index": 5.136315789473684,
    "prices": {
      "meal": 2.79,
      "meal_for_two": 13.97,
      "fast_food": 6.43,
      "beer": 0.7,
      "imported_beer": 2.1,
      "coffee": 2.51,
      "soda": 0.35,
      "water_small": 0.24,
      "bus_ticket": 0.28,
      "monthly_pass": 15.36,
      "taxi_start": 1.12,
      "taxi_km": 0.31,
      "taxi_waiting": 4.89,
      "gasoline": 1.14,
      "mobile_tariff": 0.01,
      "internet": 6.98,
      "fitness": 17.46,
      "tennis": 15.36,
      "cinema": 5.59
    }
  },
  "emergency_numbers": {
    "ambulance": "120",
    "fire": "119",
    "police": "110"
  },
  "restaurants": [
    {
      "name": "Fast temaki",
      "type": "Asian Restaurant",
      "description": "Fast temaki is a asian restaurant located in the city.",
      "address": "Amazonas Shopping",
      "tel": null,
      "location": {
        "lat": 27.752731323242188,
        "lon": 118.0347900390625
      }
    },
    {
      "name": "全家福",
      "type": "Fujian Restaurant",
      "description": "全家福 is a fujian restaurant located in the city.",
      "address": "爱华酒店二楼",
      "tel": null,
      "location": {
        "lat": 27.752147,
        "lon": 118.025683
      }
    },
    {
      "name": "一醉楼",
      "type": "Fujian Restaurant",
      "description": "一醉楼 is a fujian restaurant located in 南平市.",
      "address": "南平市, 福建省",
      "tel": null,
      "location": {
        "lat": 27.752928,
        "lon": 118.024367
      }
    },
    {
      "name": "老字号农家宴",
      "type": "Fujian Restaurant",
      "description": "老字号农家宴 is a fujian restaurant located in 武夷山市.",
      "address": "武夷山市, 福建省",
      "tel": null,
      "location": {
        "lat": 27.680834658089697,
        "lon": 117.98599877781265
      }
    },
    {
      "name": "碧湖園",
      "type": "Fujian Restaurant",
      "description": "碧湖園 is a fujian restaurant located in Nanping.",
      "address": "大王峰北路277号, Nanping, 福建省",
      "tel": null,
      "location": {
        "lat": 27.672133,
        "lon": 117.98447
      }
    }
  ],
  "_meta": {
    "generated_at": "2025-08-04T11:37:19.177191Z",
    "env": "development",
    "source": "justarrived-generator"
  }
}