{
  "json_language": "en",
  "country_code": "CN",
  "country_name": "China",
  "city_name": "Wenlan",
  "language": [
    "Chinese"
  ],
  "lat": 23.3961,
  "lon": 103.3649,
  "currencies": {
    "CNY": {
      "symbol": "¥",
      "name": "Chinese yuan"
    }
  },
  "population": 585976,
  "welcome_message_title": "Welcome to Wenlan",
  "welcome_message_body": "Welcome to Wenlan, China! Get ready to explore the city's rich history, beautiful scenery, and delicious local cuisine. We hope you have a delightful stay and make the most of your time here.",
  "welcome_message_image": null,
  "avg_prices": {
    "city": "wenlan",
    "currency": "usd",
    "avg_price_index": 5.606315789473685,
    "prices": {
      "meal": 13.97,
      "meal_for_two": 13.97,
      "fast_food": 4.54,
      "beer": 1.05,
      "imported_beer": 2.1,
      "coffee": 5.03,
      "soda": 0.42,
      "water_small": 0.28,
      "bus_ticket": 0.42,
      "monthly_pass": 8.38,
      "taxi_start": 0.98,
      "taxi_km": 0.21,
      "taxi_waiting": 6.98,
      "gasoline": 1.15,
      "mobile_tariff": 0.02,
      "internet": 6.98,
      "fitness": 23.28,
      "tennis": 11.17,
      "cinema": 5.59
    }
  },
  "emergency_numbers": {
    "ambulance": "120",
    "fire": "119",
    "police": "110"
  },
  "restaurants": [
    {
      "name": "KFC (肯德基)",
      "type": "Fast Food Restaurant",
      "description": "KFC (肯德基) is a fast food restaurant located in 蒙自县.",
      "address": "天马路, 蒙自县, 云南",
      "tel": "400 882 3823",
      "location": {
        "lat": 23.367551,
        "lon": 103.387053
      }
    },
    {
      "name": "团山春萍带皮小黄牛米线",
      "type": "Yunnan Restaurant",
      "description": "团山春萍带皮小黄牛米线 is a yunnan restaurant located in Yisa.",
      "address": "Honghe, 云南",
      "tel": null,
      "location": {
        "lat": 23.3821,
        "lon": 103.326602
      }
    },
    {
      "name": "榴鄉過橋居 • 菊花米線",
      "type": "Breakfast Spot",
      "description": "榴鄉過橋居 • 菊花米線 is a breakfast spot located in the city.",
      "address": "",
      "tel": null,
      "location": {
        "lat": 23.362787,
        "lon": 103.387871
      }
    },
    {
      "name": "思思鱔魚米線",
      "type": "Asian Restaurant",
      "description": "思思鱔魚米線 is a asian restaurant located in the city.",
      "address": "",
      "tel": null,
      "location": {
        "lat": 23.373231,
        "lon": 103.400246
      }
    },
    {
      "name": "sweety",
      "type": "Bakery",
      "description": "sweety is a bakery located in the city.",
      "address": "",
      "tel": null,
      "location": {
        "lat": 23.353729,
        "lon": 103.402389
      }
    }
  ],
  "_meta": {
    "generated_at": "2025-08-04T11:33:51.427107Z",
    "env": "development",
    "source": "justarrived-generator"
  }
}