{
  "json_language": "en",
  "country_code": "CN",
  "country_name": "China",
  "city_name": "Xichang",
  "language": [
    "Chinese"
  ],
  "lat": 27.8944,
  "lon": 102.2644,
  "currencies": {
    "CNY": {
      "symbol": "¥",
      "name": "Chinese yuan"
    }
  },
  "population": 712434,
  "welcome_message_title": "Welcome to Xichang",
  "welcome_message_body": "Welcome to Xichang, China! Get ready to explore the charming city known for its stunning natural scenery, rich cultural heritage, and delicious local cuisine. Enjoy your time and make unforgettable memories here!",
  "welcome_message_image": "https://images.unsplash.com/photo-1730136804782-27c6a7d149f3?crop=entropy&cs=tinysrgb&fit=max&fm=jpg&ixid=M3w3ODcwNDZ8MHwxfHNlYXJjaHwxfHxYaWNoYW5nfGVufDB8fHx8MTc1NDI2Njc0Nnww&ixlib=rb-4.1.0&q=80&w=1080",
  "avg_prices": {
    "city": "xichang",
    "currency": "usd",
    "avg_price_index": 6.856315789473685,
    "prices": {
      "meal": 3.14,
      "meal_for_two": 18.86,
      "fast_food": 4.19,
      "beer": 0.77,
      "imported_beer": 1.4,
      "coffee": 3.91,
      "soda": 0.42,
      "water_small": 0.24,
      "bus_ticket": 0.42,
      "monthly_pass": 41.9,
      "taxi_start": 1.12,
      "taxi_km": 0.28,
      "taxi_waiting": 3.49,
      "gasoline": 1.14,
      "mobile_tariff": 0.01,
      "internet": 8.94,
      "fitness": 23.28,
      "tennis": 11.17,
      "cinema": 5.59
    }
  },
  "emergency_numbers": {
    "ambulance": "120",
    "fire": "119",
    "police": "110"
  },
  "restaurants": [
    {
      "name": "周大胡子烧烤",
      "type": "BBQ Joint",
      "description": "周大胡子烧烤 is a bbq joint located in the city.",
      "address": "",
      "tel": "138 8155 2509",
      "location": {
        "lat": 27.890136,
        "lon": 102.244386
      }
    },
    {
      "name": "李小肠烧烤",
      "type": "BBQ Joint",
      "description": "李小肠烧烤 is a bbq joint located in Liangshan.",
      "address": "Liangshan, 四川",
      "tel": null,
      "location": {
        "lat": 27.883486,
        "lon": 102.24327
      }
    },
    {
      "name": "168火盆烧烤",
      "type": "BBQ Joint",
      "description": "168火盆烧烤 is a bbq joint located in the city.",
      "address": "",
      "tel": null,
      "location": {
        "lat": 27.87577,
        "lon": 102.251909
      }
    },
    {
      "name": "小渔村",
      "type": "BBQ Joint",
      "description": "小渔村 is a bbq joint located in the city.",
      "address": "",
      "tel": null,
      "location": {
        "lat": 27.850671870195782,
        "lon": 102.29564117365035
      }
    },
    {
      "name": "云海阁",
      "type": "Szechuan Restaurant",
      "description": "云海阁 is a szechuan restaurant located in the city.",
      "address": "",
      "tel": null,
      "location": {
        "lat": 27.834847,
        "lon": 102.275198
      }
    }
  ],
  "_meta": {
    "generated_at": "2025-08-04T11:33:25.491612Z",
    "env": "development",
    "source": "justarrived-generator"
  }
}