{
  "json_language": "en",
  "country_code": "CN",
  "country_name": "China",
  "city_name": "Xiping",
  "language": [
    "Chinese"
  ],
  "lat": 40.082,
  "lon": 113.2981,
  "currencies": {
    "CNY": {
      "symbol": "¥",
      "name": "Chinese yuan"
    }
  },
  "population": null,
  "welcome_message_title": "Welcome to Xiping",
  "welcome_message_body": "Welcome to Xiping, a charming city known for its rich history and beautiful traditional architecture. We invite you to explore and enjoy all that this unique destination has to offer.",
  "welcome_message_image": null,
  "avg_prices": {
    "city": "xiping",
    "currency": "usd",
    "avg_price_index": 10.776842105263157,
    "prices": {
      "meal": 3.49,
      "meal_for_two": 18.86,
      "fast_food": 4.19,
      "beer": 1.05,
      "imported_beer": 3.49,
      "coffee": 2.72,
      "soda": 0.49,
      "water_small": 0.28,
      "bus_ticket": 0.56,
      "monthly_pass": 31.43,
      "taxi_start": 1.12,
      "taxi_km": 0.21,
      "taxi_waiting": 4.61,
      "gasoline": 1.09,
      "mobile_tariff": 0.03,
      "internet": 41.9,
      "fitness": 65.96,
      "tennis": 16.3,
      "cinema": 6.98
    }
  },
  "emergency_numbers": {
    "ambulance": "120",
    "fire": "119",
    "police": "110"
  },
  "restaurants": [
    {
      "name": "凤临阁",
      "type": "Shanxi Restaurant",
      "description": "凤临阁 is a shanxi restaurant located in 大同市.",
      "address": "御河西路御锦源北区11号楼, 平城区, 大同市, 山西, 037000",
      "tel": "0352 666 0888",
      "location": {
        "lat": 40.090492431446926,
        "lon": 113.2905853898355
      }
    },
    {
      "name": "KFC (肯德基)",
      "type": "Fast Food Restaurant",
      "description": "KFC (肯德基) is a fast food restaurant located in the city.",
      "address": "",
      "tel": "400 882 3823",
      "location": {
        "lat": 40.087652,
        "lon": 113.290105
      }
    },
    {
      "name": "Pizza Hut (必胜客)",
      "type": "Pizzeria",
      "description": "Pizza Hut (必胜客) is a pizzeria located in the city.",
      "address": "",
      "tel": "400 812 3123",
      "location": {
        "lat": 40.073868,
        "lon": 113.30828
      }
    },
    {
      "name": "龍聚祥",
      "type": "Chinese Restaurant",
      "description": "龍聚祥 is a chinese restaurant located in 大同市.",
      "address": "鼓楼西街与永泰街交叉口西北方向, 大同市, 山西",
      "tel": "0352 537 8899",
      "location": {
        "lat": 40.090381,
        "lon": 113.294886
      }
    },
    {
      "name": "coffee time",
      "type": "Café",
      "description": "coffee time is a café located in the city.",
      "address": "",
      "tel": null,
      "location": {
        "lat": 40.08961165855673,
        "lon": 113.28986174893971
      }
    }
  ],
  "_meta": {
    "generated_at": "2025-08-04T13:18:08.139694Z",
    "env": "development",
    "source": "justarrived-generator"
  }
}