{
  "json_language": "en",
  "country_code": "CN",
  "country_name": "China",
  "city_name": "Yangliuqing",
  "language": [
    "Chinese"
  ],
  "lat": 39.13,
  "lon": 117.0142,
  "currencies": {
    "CNY": {
      "symbol": "¥",
      "name": "Chinese yuan"
    }
  },
  "population": 118291,
  "welcome_message_title": "Welcome to Yangliuqing",
  "welcome_message_body": "Welcome to Yangliuqing, a charming city known for its rich history, beautiful temples, and traditional Chinese architecture. We invite you to explore and enjoy all that our city has to offer during your stay.",
  "welcome_message_image": null,
  "avg_prices": {
    "city": "yangliuqing",
    "currency": "usd",
    "avg_price_index": 7.633684210526315,
    "prices": {
      "meal": 4.19,
      "meal_for_two": 27.94,
      "fast_food": 6.29,
      "beer": 1.4,
      "imported_beer": 2.1,
      "coffee": 3.49,
      "soda": 0.45,
      "water_small": 0.28,
      "bus_ticket": 0.42,
      "monthly_pass": 15.49,
      "taxi_start": 1.61,
      "taxi_km": 0.31,
      "taxi_waiting": 6.15,
      "gasoline": 1.17,
      "mobile_tariff": 0.03,
      "internet": 10.87,
      "fitness": 41.9,
      "tennis": 13.97,
      "cinema": 6.98
    }
  },
  "emergency_numbers": {
    "ambulance": "120",
    "fire": "119",
    "police": "110"
  },
  "restaurants": [
    {
      "name": "老胜香包子铺云锦世家店",
      "type": "Dim Sum Restaurant",
      "description": "老胜香包子铺云锦世家店 is a dim sum restaurant located in the city.",
      "address": "",
      "tel": null,
      "location": {
        "lat": 39.10916,
        "lon": 117.066071
      }
    },
    {
      "name": "KFC (肯德基)",
      "type": "Fast Food Restaurant",
      "description": "KFC (肯德基) is a fast food restaurant located in 天津市.",
      "address": "肯德基中北大道物美超市店, 天津市, 天津市, 300000",
      "tel": "400 882 3823",
      "location": {
        "lat": 39.12368790911564,
        "lon": 117.09385065479046
      }
    },
    {
      "name": "McDonald's (麦当劳)",
      "type": "Fast Food Restaurant",
      "description": "McDonald's (麦当劳) is a fast food restaurant located in 西青区.",
      "address": "芥园西道新景广场底商D座底商, 西青区, 天津市",
      "tel": "022 2751 3537",
      "location": {
        "lat": 39.12464260998294,
        "lon": 117.09452290568925
      }
    },
    {
      "name": "独钓归水上餐厅",
      "type": "Chinese Restaurant",
      "description": "独钓归水上餐厅 is a chinese restaurant located in the city.",
      "address": "",
      "tel": null,
      "location": {
        "lat": 39.07491027261604,
        "lon": 116.98053359985352
      }
    },
    {
      "name": "好印象川菜馆",
      "type": "Szechuan Restaurant",
      "description": "好印象川菜馆 is a szechuan restaurant located in 天津市.",
      "address": "张家窝镇辛老公路天德楼楼下, 天津市, 天津市",
      "tel": null,
      "location": {
        "lat": 39.069643,
        "lon": 117.030664
      }
    }
  ],
  "_meta": {
    "generated_at": "2025-08-04T11:42:30.874935Z",
    "env": "development",
    "source": "justarrived-generator"
  }
}