{
  "json_language": "en",
  "country_code": "CN",
  "country_name": "China",
  "city_name": "Yueqing",
  "language": [
    "Chinese"
  ],
  "lat": 28.12,
  "lon": 120.96,
  "currencies": {
    "CNY": {
      "symbol": "¥",
      "name": "Chinese yuan"
    }
  },
  "population": 488980,
  "welcome_message_title": "Welcome to Yueqing",
  "welcome_message_body": "Welcome to Yueqing, a charming city known for its beautiful rivers, lush greenery, and rich cultural heritage. We invite you to explore and enjoy all that our city has to offer during your visit.",
  "welcome_message_image": null,
  "avg_prices": {
    "city": "yueqing",
    "currency": "usd",
    "avg_price_index": 9.09,
    "prices": {
      "meal": 2.79,
      "meal_for_two": 20.95,
      "fast_food": 4.89,
      "beer": 0.77,
      "imported_beer": 1.75,
      "coffee": 2.7,
      "soda": 0.41,
      "water_small": 0.31,
      "bus_ticket": 0.28,
      "monthly_pass": 13.97,
      "taxi_start": 1.54,
      "taxi_km": 0.34,
      "taxi_waiting": 6.54,
      "gasoline": 1.15,
      "mobile_tariff": 0.01,
      "internet": 13.97,
      "fitness": 81.48,
      "tennis": 13.97,
      "cinema": 4.89
    }
  },
  "emergency_numbers": {
    "ambulance": "120",
    "fire": "119",
    "police": "110"
  },
  "restaurants": [
    {
      "name": "KFC (肯德基)",
      "type": "Fast Food Restaurant",
      "description": "KFC (肯德基) is a fast food restaurant located in the city.",
      "address": "",
      "tel": "400 882 3823",
      "location": {
        "lat": 28.111506188878455,
        "lon": 120.9618153427597
      }
    },
    {
      "name": "德诺咖啡",
      "type": "Café",
      "description": "德诺咖啡 is a café located in the city.",
      "address": "",
      "tel": null,
      "location": {
        "lat": 28.104949,
        "lon": 120.965252
      }
    },
    {
      "name": "竹前",
      "type": "Japanese Restaurant",
      "description": "竹前 is a japanese restaurant located in 温州市.",
      "address": "Hong Avenue, 温州市, 浙江",
      "tel": null,
      "location": {
        "lat": 28.10901,
        "lon": 120.980937
      }
    },
    {
      "name": "KFC (肯德基)",
      "type": "Fast Food Restaurant",
      "description": "KFC (肯德基) is a fast food restaurant located in the city.",
      "address": "",
      "tel": "400 882 3823",
      "location": {
        "lat": 28.049582910700387,
        "lon": 120.89311388139697
      }
    },
    {
      "name": "Redoven",
      "type": "Steakhouse",
      "description": "Redoven is a steakhouse located in the city.",
      "address": "",
      "tel": null,
      "location": {
        "lat": 28.049684524536133,
        "lon": 120.89292907714844
      }
    }
  ],
  "_meta": {
    "generated_at": "2025-08-04T11:34:19.036537Z",
    "env": "development",
    "source": "justarrived-generator"
  }
}