{
  "json_language": "en",
  "country_code": "CO",
  "country_name": "Colombia",
  "city_name": "Pamplona",
  "language": [
    "Spanish"
  ],
  "lat": 7.3781,
  "lon": -72.6525,
  "currencies": {
    "COP": {
      "symbol": "$",
      "name": "Colombian peso"
    }
  },
  "population": 50025,
  "welcome_message_title": "Welcome to Pamplona",
  "welcome_message_body": "\"Welcome to Pamplona, Colombia! Get ready to experience the enchanting charm of our colonial city and immerse yourself in its rich culture and history. We invite you to explore and enjoy all that Pamplona has to offer.\"",
  "welcome_message_image": null,
  "avg_prices": {
    "city": "pamplona",
    "currency": "usd",
    "avg_price_index": 11.802631578947368,
    "prices": {
      "meal": 12.46,
      "meal_for_two": 51.93,
      "fast_food": 7.27,
      "beer": 3.12,
      "imported_beer": 3.12,
      "coffee": 1.54,
      "soda": 1.95,
      "water_small": 0.97,
      "bus_ticket": 1.38,
      "monthly_pass": 31.16,
      "taxi_start": 3.12,
      "taxi_km": 1.17,
      "taxi_waiting": 15.01,
      "gasoline": 1.53,
      "mobile_tariff": 0.1,
      "internet": 39.47,
      "fitness": 34.1,
      "tennis": 7.27,
      "cinema": 7.58
    }
  },
  "emergency_numbers": {
    "ambulance": "125",
    "fire": "119",
    "police": "112"
  },
  "restaurants": [
    {
      "name": "Carmie Food Hub",
      "type": "Burger Joint",
      "description": "Carmie Food Hub is a burger joint located in Pamplona.",
      "address": "Centro, 3522 Pamplona, Cagayan",
      "tel": null,
      "location": {
        "lat": 18.46645,
        "lon": 121.34289
      }
    },
    {
      "name": "Franks",
      "type": "Burger Joint",
      "description": "Franks is a burger joint located in Pamplona.",
      "address": "3522 Pamplona, Cagayan",
      "tel": null,
      "location": {
        "lat": 18.464046,
        "lon": 121.34117
      }
    },
    {
      "name": "The Venue",
      "type": "Seafood Restaurant",
      "description": "The Venue is a seafood restaurant located in Pamplona.",
      "address": "3522 Pamplona, Cagayan",
      "tel": null,
      "location": {
        "lat": 18.4872,
        "lon": 121.340703
      }
    },
    {
      "name": "Pampanguena's BBQ",
      "type": "BBQ Joint",
      "description": "Pampanguena's BBQ is a bbq joint located in the city.",
      "address": "",
      "tel": null,
      "location": {
        "lat": 18.55226707458496,
        "lon": 121.24526977539062
      }
    },
    {
      "name": "Lokomoko Restaurant",
      "type": "Restaurant",
      "description": "Lokomoko Restaurant is a restaurant located in Abulug.",
      "address": "3517 Abulug, Cagayan",
      "tel": null,
      "location": {
        "lat": 18.345268,
        "lon": 121.398971
      }
    }
  ],
  "airports": null,
  "_meta": {
    "generated_at": "2025-08-04T18:29:42.203610Z",
    "env": "development",
    "source": "justarrived-generator"
  }
}