{
  "json_language": "en",
  "country_code": "CR",
  "country_name": "Costa Rica",
  "city_name": "Canoas",
  "language": [
    "Spanish"
  ],
  "lat": 8.5333,
  "lon": -82.8333,
  "currencies": {
    "CRC": {
      "symbol": "₡",
      "name": "Costa Rican colón"
    }
  },
  "population": 9543,
  "welcome_message_title": "Welcome to Canoas",
  "welcome_message_body": "\"Welcome to Canoas, Costa Rica! Get ready to experience the charm of our vibrant city known for its stunning beaches, lush rainforests, and friendly locals. We invite you to explore and enjoy all that Canoas has to offer.\"",
  "welcome_message_image": null,
  "avg_prices": {
    "city": "canoas",
    "currency": "usd",
    "avg_price_index": 7.002105263157894,
    "prices": {
      "meal": 4.66,
      "meal_for_two": 22.36,
      "fast_food": 4.66,
      "beer": 1.02,
      "imported_beer": 1.3,
      "coffee": 1.35,
      "soda": 0.61,
      "water_small": 0.28,
      "bus_ticket": 0.92,
      "monthly_pass": 39.13,
      "taxi_start": 1.02,
      "taxi_km": 0.47,
      "taxi_waiting": 4.47,
      "gasoline": 1.23,
      "mobile_tariff": 0.08,
      "internet": 14.91,
      "fitness": 21.06,
      "tennis": 9.32,
      "cinema": 4.19
    }
  },
  "emergency_numbers": {
    "general": "112"
  },
  "restaurants": [
    {
      "name": "Los Maderos",
      "type": "Restaurant",
      "description": "Los Maderos is a restaurant located in the city.",
      "address": "Paso Canoas",
      "tel": null,
      "location": {
        "lat": 8.521260777384619,
        "lon": -82.83396850710814
      }
    },
    {
      "name": "McDonald's",
      "type": "Fast Food Restaurant",
      "description": "McDonald's is a fast food restaurant located in Paso Canoas.",
      "address": "City Mall (Av. Central Norte), Paso Canoas",
      "tel": "7277451",
      "location": {
        "lat": 8.537883444023777,
        "lon": -82.83919268406974
      }
    },
    {
      "name": "Pizza Hut",
      "type": "Pizzeria",
      "description": "Pizza Hut is a pizzeria located in the city.",
      "address": "",
      "tel": null,
      "location": {
        "lat": 8.534583,
        "lon": -82.838824
      }
    },
    {
      "name": "McDonald's",
      "type": "Fast Food Restaurant",
      "description": "McDonald's is a fast food restaurant located in the city.",
      "address": "",
      "tel": null,
      "location": {
        "lat": 8.53790782016799,
        "lon": -82.83921447610757
      }
    },
    {
      "name": "Marisqueria Beto's del Sur",
      "type": "Seafood Restaurant",
      "description": "Marisqueria Beto's del Sur is a seafood restaurant located in Canoas, Puntarenas.",
      "address": "Canoas, Puntarenas",
      "tel": null,
      "location": {
        "lat": 8.532469629107668,
        "lon": -82.83956289944844
      }
    }
  ],
  "_meta": {
    "generated_at": "2025-08-04T13:06:38.591538Z",
    "env": "development",
    "source": "justarrived-generator"
  }
}