{
  "json_language": "en",
  "country_code": "DE",
  "country_name": "Germany",
  "city_name": "Bottrop",
  "language": [
    "German"
  ],
  "lat": 51.5247,
  "lon": 6.9228,
  "currencies": {
    "EUR": {
      "symbol": "€",
      "name": "Euro"
    }
  },
  "population": 118705,
  "welcome_message_title": "Welcome to Bottrop",
  "welcome_message_body": "Welcome to Bottrop, Germany! This charming city is known for its beautiful parks, cultural attractions, and friendly locals. We invite you to explore and enjoy all that Bottrop has to offer during your visit.",
  "welcome_message_image": null,
  "avg_prices": {
    "city": "bottrop",
    "currency": "usd",
    "avg_price_index": 16.36894736842105,
    "prices": {
      "meal": 12.98,
      "meal_for_two": 51.93,
      "fast_food": 8.31,
      "beer": 2.6,
      "imported_beer": 2.08,
      "coffee": 2.88,
      "soda": 2.08,
      "water_small": 1.56,
      "bus_ticket": 2.65,
      "monthly_pass": 84.65,
      "taxi_start": 3.12,
      "taxi_km": 1.97,
      "taxi_waiting": 33.65,
      "gasoline": 2.29,
      "mobile_tariff": 0.1,
      "internet": 22.33,
      "fitness": 19.91,
      "tennis": 45.01,
      "cinema": 10.91
    }
  },
  "emergency_numbers": {
    "general": "112",
    "police": "110"
  },
  "restaurants": [
    {
      "name": "Daikychi Sushibar",
      "type": "Sushi Restaurant",
      "description": "Daikychi Sushibar is a sushi restaurant located in Bottrop.",
      "address": "Berliner Platz 10, 46236 Bottrop",
      "tel": "02041 7715348",
      "location": {
        "lat": 51.52241480991956,
        "lon": 6.928035283184511
      }
    },
    {
      "name": "Café Kram",
      "type": "Café",
      "description": "Café Kram is a café located in Bottrop.",
      "address": "Adolf-Kolping-Str. 1, 46236 Bottrop",
      "tel": "02041 5670880",
      "location": {
        "lat": 51.52089272074478,
        "lon": 6.926745349104605
      }
    },
    {
      "name": "Drago Steakhaus",
      "type": "Steakhouse",
      "description": "Drago Steakhaus is a steakhouse located in Bottrop.",
      "address": "Bottrop",
      "tel": "04920 4128504",
      "location": {
        "lat": 51.52364605571803,
        "lon": 6.927478752495251
      }
    },
    {
      "name": "Corretto",
      "type": "Café",
      "description": "Corretto is a café located in Bottrop.",
      "address": "Bottrop",
      "tel": null,
      "location": {
        "lat": 51.524327893027504,
        "lon": 6.927913625224569
      }
    },
    {
      "name": "ORAK Döner Haus",
      "type": "Doner Restaurant",
      "description": "ORAK Döner Haus is a doner restaurant located in the city.",
      "address": "",
      "tel": "0491 5122977071",
      "location": {
        "lat": 51.531401677172994,
        "lon": 6.89127978871424
      }
    }
  ],
  "_meta": {
    "generated_at": "2025-08-04T11:42:27.014127Z",
    "env": "development",
    "source": "justarrived-generator"
  }
}