{
  "json_language": "en",
  "country_code": "DE",
  "country_name": "Germany",
  "city_name": "Essen",
  "language": [
    "German"
  ],
  "lat": 52.7211,
  "lon": 7.9406,
  "currencies": {
    "EUR": {
      "symbol": "€",
      "name": "Euro"
    }
  },
  "population": 9083,
  "welcome_message_title": "Welcome to Essen",
  "welcome_message_body": "Welcome to Essen, a city known for its rich industrial heritage, beautiful green spaces, and vibrant cultural scene. We invite you to explore and enjoy all that Essen has to offer during your visit!",
  "welcome_message_image": null,
  "avg_prices": {
    "city": "essen",
    "currency": "usd",
    "avg_price_index": 17.402105263157893,
    "prices": {
      "meal": 11.43,
      "meal_for_two": 54.53,
      "fast_food": 8.56,
      "beer": 3.53,
      "imported_beer": 3.12,
      "coffee": 2.82,
      "soda": 2.6,
      "water_small": 1.64,
      "bus_ticket": 3.12,
      "monthly_pass": 83.1,
      "taxi_start": 4.15,
      "taxi_km": 2.08,
      "taxi_waiting": 33.03,
      "gasoline": 2.29,
      "mobile_tariff": 0.17,
      "internet": 38.95,
      "fitness": 20.12,
      "tennis": 45.01,
      "cinema": 10.39
    }
  },
  "emergency_numbers": {
    "general": "112",
    "police": "110"
  },
  "restaurants": [
    {
      "name": "Pizza-Restaurant Milano",
      "type": "Pizzeria",
      "description": "Pizza-Restaurant Milano is a pizzeria located in Essen.",
      "address": "Lange Str. 43, 49632 Essen",
      "tel": "04954 34902370",
      "location": {
        "lat": 52.720009975283546,
        "lon": 7.939876061327263
      }
    },
    {
      "name": "Das kleine Restaurant",
      "type": "German Restaurant",
      "description": "Das kleine Restaurant is a german restaurant located in 49610 Quakenbrück.",
      "address": "Kampstraße 3, 49610 Quakenbrück",
      "tel": "04954 312501",
      "location": {
        "lat": 52.686847,
        "lon": 7.967106
      }
    },
    {
      "name": "Da Seba",
      "type": "Italian Restaurant",
      "description": "Da Seba is a italian restaurant located in Quakenbrück.",
      "address": "Quakenbrück",
      "tel": null,
      "location": {
        "lat": 52.67983842089884,
        "lon": 7.947812410789858
      }
    },
    {
      "name": "Mykonos",
      "type": "Greek Restaurant",
      "description": "Mykonos is a greek restaurant located in Quakenbrück.",
      "address": "Bahnhofstr. 23, Quakenbrück",
      "tel": "",
      "location": {
        "lat": 52.67433851322823,
        "lon": 7.9522183680816525
      }
    },
    {
      "name": "Balkangrill",
      "type": "Steakhouse",
      "description": "Balkangrill is a steakhouse located in the city.",
      "address": "",
      "tel": "04954 315619",
      "location": {
        "lat": 52.674108326196915,
        "lon": 7.95516024411804
      }
    }
  ],
  "_meta": {
    "generated_at": "2025-08-04T13:10:04.817240Z",
    "env": "development",
    "source": "justarrived-generator"
  }
}