{
  "json_language": "en",
  "country_code": "DO",
  "country_name": "Dominican Republic",
  "city_name": "San Juan",
  "language": [
    "Spanish"
  ],
  "lat": 18.81,
  "lon": -71.23,
  "currencies": {
    "DOP": {
      "symbol": "$",
      "name": "Dominican peso"
    }
  },
  "population": 132177,
  "welcome_message_title": "Welcome to San Juan",
  "welcome_message_body": "Welcome to San Juan, Dominican Republic, where the vibrant culture, stunning beaches, and rich history await you. We invite you to explore and immerse yourself in the charm of our beautiful city. Enjoy your stay!",
  "welcome_message_image": null,
  "avg_prices": {
    "city": "san juan",
    "currency": "usd",
    "avg_price_index": 18.43,
    "prices": {
      "meal": 25.0,
      "meal_for_two": 105.0,
      "fast_food": 8.5,
      "beer": 2.0,
      "imported_beer": 3.5,
      "coffee": 4.33,
      "soda": 1.5,
      "water_small": 1.33,
      "bus_ticket": 1.25,
      "monthly_pass": 12.5,
      "taxi_start": 2.5,
      "taxi_km": 0.62,
      "taxi_waiting": 20.0,
      "gasoline": 0.97,
      "mobile_tariff": 0.25,
      "internet": 56.67,
      "fitness": 71.25,
      "tennis": 25.0,
      "cinema": 8.0
    }
  },
  "emergency_numbers": {
    "general": "112"
  },
  "restaurants": [
    {
      "name": "Patucannay's Best",
      "type": "Soup Spot",
      "description": "Patucannay's Best is a soup spot located in Bangued.",
      "address": "Patucannay, 2800 Bangued, Abra",
      "tel": null,
      "location": {
        "lat": 17.64455113363748,
        "lon": 120.67894581421874
      }
    },
    {
      "name": "ENJB Panciteria",
      "type": "Soup Spot",
      "description": "ENJB Panciteria is a soup spot located in Lagangilang.",
      "address": "Nagsayangan, 2902 Lagangilang, Abra",
      "tel": null,
      "location": {
        "lat": 17.603739,
        "lon": 120.74056
      }
    },
    {
      "name": "Kuya Dee-Ar Pnctn",
      "type": "Noodle Restaurant",
      "description": "Kuya Dee-Ar Pnctn is a noodle restaurant located in Tayum.",
      "address": "2803 Tayum, Abra",
      "tel": null,
      "location": {
        "lat": 17.61748,
        "lon": 120.6574
      }
    },
    {
      "name": "Max’s Restaurant",
      "type": "Filipino Restaurant",
      "description": "Max’s Restaurant is a filipino restaurant located in Bangued.",
      "address": "2800 Bangued, Abra",
      "tel": null,
      "location": {
        "lat": 17.614679,
        "lon": 120.617363
      }
    },
    {
      "name": "Scituate Pub and Bistro",
      "type": "Restaurant",
      "description": "Scituate Pub and Bistro is a restaurant located in Bangued.",
      "address": "Rizal Street, Zone 7, 2800 Bangued, Abra",
      "tel": null,
      "location": {
        "lat": 17.600801467895508,
        "lon": 120.62274169921875
      }
    }
  ],
  "_meta": {
    "generated_at": "2025-08-04T11:41:27.888217Z",
    "env": "development",
    "source": "justarrived-generator"
  }
}