{
  "json_language": "en",
  "country_code": "ET",
  "country_name": "Ethiopia",
  "city_name": "Mekele",
  "language": [
    "Amharic"
  ],
  "lat": 13.4969,
  "lon": 39.4769,
  "currencies": {
    "ETB": {
      "symbol": "Br",
      "name": "Ethiopian birr"
    }
  },
  "population": 323700,
  "welcome_message_title": "Welcome to Mekele",
  "welcome_message_body": "Welcome to Mekele, the vibrant and historical city known for its rich culture, stunning landscapes, and friendly locals. We invite you to explore and enjoy all that Mekele has to offer during your visit.",
  "welcome_message_image": null,
  "avg_prices": {
    "city": "mekele",
    "currency": "usd",
    "avg_price_index": 7.314736842105263,
    "prices": {
      "meal": 4.0,
      "meal_for_two": 13.23,
      "fast_food": 5.0,
      "beer": 1.0,
      "imported_beer": 1.5,
      "coffee": 0.97,
      "soda": 0.4,
      "water_small": 0.3,
      "bus_ticket": 0.12,
      "monthly_pass": 4.5,
      "taxi_start": 1.0,
      "taxi_km": 1.9,
      "taxi_waiting": 3.0,
      "gasoline": 0.55,
      "mobile_tariff": 0.01,
      "internet": 15.0,
      "fitness": 50.0,
      "tennis": 35.0,
      "cinema": 1.5
    }
  },
  "emergency_numbers": {
    "ambulance": "92",
    "fire": "93",
    "police": "91"
  },
  "restaurants": [
    {
      "name": "Green Valley",
      "type": "Café",
      "description": "Green Valley is a café located in Mek’elē.",
      "address": "Mekele",
      "tel": null,
      "location": {
        "lat": 13.495454196906714,
        "lon": 39.47551672887786
      }
    },
    {
      "name": "Yordanos",
      "type": "Pizzeria",
      "description": "Yordanos is a pizzeria located in Mek’elē.",
      "address": "Near Abraha Castle, Mek'ele",
      "tel": null,
      "location": {
        "lat": 13.48924082269492,
        "lon": 39.4779276761808
      }
    },
    {
      "name": "Geza Gerlase",
      "type": "Ethiopian Restaurant",
      "description": "Geza Gerlase is a ethiopian restaurant located in the city.",
      "address": "",
      "tel": null,
      "location": {
        "lat": 13.48946601361495,
        "lon": 39.473565663220995
      }
    },
    {
      "name": "DA-Henry Bar & Restaurant",
      "type": "Restaurant",
      "description": "DA-Henry Bar & Restaurant is a restaurant located in the city.",
      "address": "",
      "tel": null,
      "location": {
        "lat": 13.490677,
        "lon": 39.471474
      }
    },
    {
      "name": "Smile Cafe & Restaurant",
      "type": "Restaurant",
      "description": "Smile Cafe & Restaurant is a restaurant located in the city.",
      "address": "",
      "tel": null,
      "location": {
        "lat": 13.48588,
        "lon": 39.473038
      }
    }
  ],
  "_meta": {
    "generated_at": "2025-08-04T11:35:42.906697Z",
    "env": "development",
    "source": "justarrived-generator"
  }
}