{
  "json_language": "en",
  "country_code": "GM",
  "country_name": "Gambia, The",
  "city_name": "Serekunda",
  "language": [
    "English"
  ],
  "lat": 13.445,
  "lon": -16.675,
  "currencies": {
    "GMD": {
      "symbol": "D",
      "name": "dalasi"
    }
  },
  "population": 382096,
  "welcome_message_title": "Welcome to Serekunda",
  "welcome_message_body": "Welcome to Serekunda, Gambia! Get ready to be captivated by the city's vibrant culture, bustling markets, and beautiful beaches. We invite you to explore and enjoy all that Serekunda has to offer.",
  "welcome_message_image": null,
  "avg_prices": {
    "city": "serekunda",
    "currency": "usd",
    "avg_price_index": 11.31421052631579,
    "prices": {
      "meal": 2.38,
      "meal_for_two": 23.75,
      "fast_food": 3.96,
      "beer": 1.58,
      "imported_beer": 3.17,
      "coffee": 2.38,
      "soda": 0.48,
      "water_small": 0.8,
      "bus_ticket": 0.36,
      "monthly_pass": 19.79,
      "taxi_start": 2.38,
      "taxi_km": 1.58,
      "taxi_waiting": 12.67,
      "gasoline": 1.32,
      "mobile_tariff": 0.14,
      "internet": 48.1,
      "fitness": 71.65,
      "tennis": 10.56,
      "cinema": 7.92
    }
  },
  "emergency_numbers": {
    "ambulance": "16",
    "fire": "18",
    "police": "17"
  },
  "restaurants": [
    {
      "name": "The Butchers Shop",
      "type": "African Restaurant",
      "description": "The Butchers Shop is a african restaurant located in Serrekunda.",
      "address": "130 Kairaba Ave, Sere Kunda",
      "tel": "449 5069",
      "location": {
        "lat": 13.469989488160623,
        "lon": -16.692998541485874
      }
    },
    {
      "name": "Leybato",
      "type": "Café",
      "description": "Leybato is a café located in the city.",
      "address": "",
      "tel": null,
      "location": {
        "lat": 13.47227549859972,
        "lon": -16.697241627217235
      }
    },
    {
      "name": "La Parisienne",
      "type": "Café",
      "description": "La Parisienne is a café located in the city.",
      "address": "",
      "tel": null,
      "location": {
        "lat": 13.461366830469347,
        "lon": -16.68707929133652
      }
    },
    {
      "name": "Red Croc Restaurant",
      "type": "African Restaurant",
      "description": "Red Croc Restaurant is a african restaurant located in Bakau.",
      "address": "Cape Point, Bakau",
      "tel": null,
      "location": {
        "lat": 13.484654215591577,
        "lon": -16.665672287615436
      }
    },
    {
      "name": "Paradiso",
      "type": "Italian Restaurant",
      "description": "Paradiso is a italian restaurant located in the city.",
      "address": "",
      "tel": null,
      "location": {
        "lat": 13.441672935610839,
        "lon": -16.720719418910033
      }
    }
  ],
  "_meta": {
    "generated_at": "2025-08-04T11:35:03.604259Z",
    "env": "development",
    "source": "justarrived-generator"
  }
}