{
  "json_language": "en",
  "country_code": "GQ",
  "country_name": "Equatorial Guinea",
  "city_name": "Malabo",
  "language": [
    "French"
  ],
  "lat": 3.7456,
  "lon": 8.7744,
  "currencies": {
    "XAF": {
      "symbol": "Fr",
      "name": "Central African CFA franc"
    }
  },
  "population": 297000,
  "welcome_message_title": "Welcome to Malabo",
  "welcome_message_body": "Welcome to Malabo, the charming capital city of Equatorial Guinea! Known for its beautiful colonial architecture and stunning views of the Atlantic Ocean, we invite you to explore and enjoy all that Malabo has to offer.",
  "welcome_message_image": null,
  "avg_prices": {
    "city": "malabo",
    "currency": "usd",
    "avg_price_index": 20.399473684210523,
    "prices": {
      "meal": 12.67,
      "meal_for_two": 39.59,
      "fast_food": 19.79,
      "beer": 0.79,
      "imported_beer": 4.75,
      "coffee": 6.33,
      "soda": 1.06,
      "water_small": 1.19,
      "bus_ticket": 1.58,
      "monthly_pass": 43.66,
      "taxi_start": 0.79,
      "taxi_km": 0.79,
      "taxi_waiting": 6.33,
      "gasoline": 0.77,
      "mobile_tariff": 0.26,
      "internet": 158.35,
      "fitness": 54.11,
      "tennis": 27.62,
      "cinema": 7.16
    }
  },
  "emergency_numbers": {
    "general": "112"
  },
  "restaurants": [
    {
      "name": "Cafe Malabo",
      "type": "Café",
      "description": "Cafe Malabo is a café located in Malabo.",
      "address": "Avda. Independencia, Malabo",
      "tel": "222 086 017",
      "location": {
        "lat": 3.7551928986747956,
        "lon": 8.777815506356534
      }
    },
    {
      "name": "Delice De France",
      "type": "French Restaurant",
      "description": "Delice De France is a french restaurant located in the city.",
      "address": "",
      "tel": null,
      "location": {
        "lat": 3.754984832090981,
        "lon": 8.777428162570564
      }
    },
    {
      "name": "Buffalo's",
      "type": "Irish Pub",
      "description": "Buffalo's is a irish pub located in the city.",
      "address": "",
      "tel": null,
      "location": {
        "lat": 3.7440257791006064,
        "lon": 8.768519790973638
      }
    },
    {
      "name": "Bantu",
      "type": "Asian Restaurant",
      "description": "Bantu is a asian restaurant located in the city.",
      "address": "",
      "tel": null,
      "location": {
        "lat": 3.7527760661082814,
        "lon": 8.776287661576553
      }
    },
    {
      "name": "French Cultural Institute",
      "type": "Restaurant",
      "description": "French Cultural Institute is a restaurant located in Malabo.",
      "address": "Malabo",
      "tel": null,
      "location": {
        "lat": 3.7505638083697446,
        "lon": 8.768578961552777
      }
    }
  ],
  "_meta": {
    "generated_at": "2025-08-04T11:36:11.354394Z",
    "env": "development",
    "source": "justarrived-generator"
  }
}