{
  "json_language": "en",
  "country_code": "GW",
  "country_name": "Guinea-Bissau",
  "city_name": "Bissau",
  "language": [
    "Portuguese"
  ],
  "lat": 11.85,
  "lon": -15.5667,
  "currencies": {
    "XOF": {
      "symbol": "Fr",
      "name": "West African CFA franc"
    }
  },
  "population": 492004,
  "welcome_message_title": "Welcome to Bissau",
  "welcome_message_body": "Welcome to Bissau, the vibrant capital of Guinea-Bissau! Get ready to immerse yourself in the city's unique blend of Portuguese colonial architecture, lively markets, and rich cultural heritage. We invite you to explore and enjoy all that Bissau has to offer.",
  "welcome_message_image": null,
  "avg_prices": {
    "city": "bissau",
    "currency": "usd",
    "avg_price_index": 7.073125,
    "prices": {
      "meal": 2.58,
      "meal_for_two": 15.02,
      "fast_food": 2.23,
      "beer": 1.0,
      "imported_beer": 2.0,
      "coffee": 2.38,
      "soda": 1.13,
      "water_small": 1.28,
      "taxi_start": 0.4,
      "taxi_km": 0.79,
      "taxi_waiting": 6.33,
      "gasoline": 1.05,
      "mobile_tariff": 0.18,
      "fitness": 71.26,
      "tennis": 3.96,
      "cinema": 1.58
    }
  },
  "emergency_numbers": {
    "general": "112"
  },
  "restaurants": [
    {
      "name": "Adega do Loureiro",
      "type": "Portuguese Restaurant",
      "description": "Adega do Loureiro is a portuguese restaurant located in the city.",
      "address": "",
      "tel": null,
      "location": {
        "lat": 11.861278533935547,
        "lon": -15.585095405578613
      }
    },
    {
      "name": "A padeira Africana",
      "type": "African Restaurant",
      "description": "A padeira Africana is a african restaurant located in the city.",
      "address": "",
      "tel": null,
      "location": {
        "lat": 11.856759496827523,
        "lon": -15.587178541691918
      }
    },
    {
      "name": "Mexican Restaurant",
      "type": "Mexican Restaurant",
      "description": "Mexican Restaurant is a mexican restaurant located in Биссау.",
      "address": "Биссау",
      "tel": null,
      "location": {
        "lat": 11.848783,
        "lon": -15.563393
      }
    },
    {
      "name": "O Bistro",
      "type": "Italian Restaurant",
      "description": "O Bistro is a italian restaurant located in Bissau.",
      "address": "Rua Eduardo Mondlane, Bissau",
      "tel": null,
      "location": {
        "lat": 11.862137849236294,
        "lon": -15.580404996871948
      }
    },
    {
      "name": "Oporto",
      "type": "Portuguese Restaurant",
      "description": "Oporto is a portuguese restaurant located in Bissau.",
      "address": "Avenida Amilcar Cabral, Bissau",
      "tel": null,
      "location": {
        "lat": 11.860804381265073,
        "lon": -15.581730008125305
      }
    }
  ],
  "_meta": {
    "generated_at": "2025-08-04T11:34:17.395272Z",
    "env": "development",
    "source": "justarrived-generator"
  }
}