{
  "json_language": "en",
  "country_code": "HT",
  "country_name": "Haiti",
  "city_name": "Carrefour",
  "language": [
    "French"
  ],
  "lat": 18.5333,
  "lon": -72.4,
  "currencies": {
    "HTG": {
      "symbol": "G",
      "name": "Haitian gourde"
    }
  },
  "population": 511345,
  "welcome_message_title": "Welcome to Carrefour",
  "welcome_message_body": "Welcome to Carrefour, Haiti! This vibrant city is known for its rich history, beautiful beaches, and welcoming locals. We invite you to explore and immerse yourself in all the charm Carrefour has to offer. Enjoy your stay!",
  "welcome_message_image": null,
  "avg_prices": {
    "city": "carrefour",
    "currency": "usd",
    "avg_price_index": 25.87470588235294,
    "prices": {
      "meal": 15.0,
      "meal_for_two": 85.0,
      "fast_food": 15.0,
      "beer": 4.5,
      "imported_beer": 6.5,
      "coffee": 2.77,
      "soda": 2.04,
      "water_small": 2.25,
      "bus_ticket": 0.5,
      "monthly_pass": 41.21,
      "taxi_waiting": 3.83,
      "gasoline": 0.66,
      "mobile_tariff": 0.09,
      "internet": 165.98,
      "fitness": 69.54,
      "tennis": 20.0,
      "cinema": 5.0
    }
  },
  "emergency_numbers": {
    "ambulance": "118",
    "police": "114"
  },
  "restaurants": [
    {
      "name": "Bbq Chicken",
      "type": "BBQ Joint",
      "description": "Bbq Chicken is a bbq joint located in the city.",
      "address": "Carrefour",
      "tel": null,
      "location": {
        "lat": 18.53306770324707,
        "lon": -72.40827941894531
      }
    },
    {
      "name": "Özsüt Teras",
      "type": "Café",
      "description": "Özsüt Teras is a café located in B.",
      "address": "Carrefour, B",
      "tel": null,
      "location": {
        "lat": 18.529514,
        "lon": -72.408226
      }
    },
    {
      "name": "Epi D'or",
      "type": "Bakery",
      "description": "Epi D'or is a bakery located in the city.",
      "address": "Diquini 63",
      "tel": null,
      "location": {
        "lat": 18.53356559638987,
        "lon": -72.38719286541757
      }
    },
    {
      "name": "La Shekinah Hotel Resto",
      "type": "BBQ Joint",
      "description": "La Shekinah Hotel Resto is a bbq joint located in Carrefour.",
      "address": "Thor 10 imp la Paix, Carrefour",
      "tel": null,
      "location": {
        "lat": 18.532799,
        "lon": -72.387054
      }
    },
    {
      "name": "5 Coins (Centre Ville)",
      "type": "Restaurant",
      "description": "5 Coins (Centre Ville) is a restaurant located in the city.",
      "address": "Magloire Ambroise",
      "tel": null,
      "location": {
        "lat": 18.533746881930142,
        "lon": -72.34000093872822
      }
    }
  ],
  "_meta": {
    "generated_at": "2025-08-04T11:34:11.145360Z",
    "env": "development",
    "source": "justarrived-generator"
  }
}