{
  "json_language": "en",
  "country_code": "HT",
  "country_name": "Haiti",
  "city_name": "Jacmel",
  "language": [
    "French"
  ],
  "lat": 18.235,
  "lon": -72.537,
  "currencies": {
    "HTG": {
      "symbol": "G",
      "name": "Haitian gourde"
    }
  },
  "population": 137966,
  "welcome_message_title": "Welcome to Jacmel",
  "welcome_message_body": "\"Welcome to Jacmel, a city known for its vibrant arts scene, beautiful beaches, and charming colonial architecture. We hope you take the time to explore and enjoy all that our city has to offer during your visit.\"",
  "welcome_message_image": null,
  "avg_prices": {
    "city": "jacmel",
    "currency": "usd",
    "avg_price_index": 15.44764705882353,
    "prices": {
      "meal": 12.0,
      "meal_for_two": 39.0,
      "fast_food": 10.0,
      "beer": 4.5,
      "imported_beer": 5.0,
      "coffee": 2.0,
      "soda": 2.04,
      "water_small": 2.25,
      "bus_ticket": 0.5,
      "monthly_pass": 41.21,
      "taxi_waiting": 3.83,
      "gasoline": 0.66,
      "mobile_tariff": 0.08,
      "internet": 45.0,
      "fitness": 69.54,
      "tennis": 20.0,
      "cinema": 5.0
    }
  },
  "emergency_numbers": {
    "ambulance": "118",
    "police": "114"
  },
  "restaurants": [
    {
      "name": "Chez Hubert",
      "type": "Diner",
      "description": "Chez Hubert is a diner located in the city.",
      "address": "",
      "tel": null,
      "location": {
        "lat": 18.234313055803643,
        "lon": -72.53725589117767
      }
    },
    {
      "name": "Koze Cafe",
      "type": "Café",
      "description": "Koze Cafe is a café located in Jakmèl.",
      "address": "Rue du Commerce, Jakmèl",
      "tel": null,
      "location": {
        "lat": 18.233427,
        "lon": -72.536652
      }
    },
    {
      "name": "La Taverne",
      "type": "Diner",
      "description": "La Taverne is a diner located in the city.",
      "address": "",
      "tel": null,
      "location": {
        "lat": 18.237084893254494,
        "lon": -72.5368226393338
      }
    },
    {
      "name": "Le Chandelier",
      "type": "Caribbean Restaurant",
      "description": "Le Chandelier is a caribbean restaurant located in Jakmèl.",
      "address": "grand rue, Jakmèl",
      "tel": null,
      "location": {
        "lat": 18.2367411374114,
        "lon": -72.53450617397712
      }
    },
    {
      "name": "le rendez-vous",
      "type": "Bistro",
      "description": "le rendez-vous is a bistro located in the city.",
      "address": "",
      "tel": null,
      "location": {
        "lat": 18.246396,
        "lon": -72.508308
      }
    }
  ],
  "_meta": {
    "generated_at": "2025-08-04T11:41:03.504003Z",
    "env": "development",
    "source": "justarrived-generator"
  }
}