{
  "json_language": "en",
  "country_code": "HT",
  "country_name": "Haiti",
  "city_name": "Saint-Marc",
  "language": [
    "French"
  ],
  "lat": 19.1167,
  "lon": -72.7,
  "currencies": {
    "HTG": {
      "symbol": "G",
      "name": "Haitian gourde"
    }
  },
  "population": 160181,
  "welcome_message_title": "Welcome to Saint-Marc",
  "welcome_message_body": "Welcome to Saint-Marc, a charming city known for its vibrant markets, beautiful beaches and rich history. We invite you to explore and enjoy all that our city has to offer during your visit.",
  "welcome_message_image": null,
  "avg_prices": {
    "city": "saint-marc",
    "currency": "usd",
    "avg_price_index": 25.87470588235294,
    "prices": {
      "meal": 15.0,
      "meal_for_two": 85.0,
      "fast_food": 15.0,
      "beer": 4.5,
      "imported_beer": 6.5,
      "coffee": 2.77,
      "soda": 2.04,
      "water_small": 2.25,
      "bus_ticket": 0.5,
      "monthly_pass": 41.21,
      "taxi_waiting": 3.83,
      "gasoline": 0.66,
      "mobile_tariff": 0.09,
      "internet": 165.98,
      "fitness": 69.54,
      "tennis": 20.0,
      "cinema": 5.0
    }
  },
  "emergency_numbers": {
    "ambulance": "118",
    "police": "114"
  },
  "restaurants": [
    {
      "name": "Kay Foun",
      "type": "New American Restaurant",
      "description": "Kay Foun is a new american restaurant located in Saint-Marc.",
      "address": "8, Pivert, Saint-Marc",
      "tel": null,
      "location": {
        "lat": 19.106900665958786,
        "lon": -72.69779499739953
      }
    },
    {
      "name": "Hangout Place",
      "type": "Snack Place",
      "description": "Hangout Place is a snack place located in the city.",
      "address": "Rue Chavannes",
      "tel": null,
      "location": {
        "lat": 19.112321,
        "lon": -72.699897
      }
    },
    {
      "name": "Bon Jean Fast Food",
      "type": "Fast Food Restaurant",
      "description": "Bon Jean Fast Food is a fast food restaurant located in Saint-Marc.",
      "address": "Angle Rue Louverture Et Rue Chavannes, Saint-Marc",
      "tel": null,
      "location": {
        "lat": 19.11230576344778,
        "lon": -72.70058625589492
      }
    },
    {
      "name": "La Casa De San Antonio",
      "type": "Caribbean Restaurant",
      "description": "La Casa De San Antonio is a caribbean restaurant located in Saint-Marc.",
      "address": "Rue Bonnet, Saint-Marc",
      "tel": null,
      "location": {
        "lat": 19.113953,
        "lon": -72.696099
      }
    },
    {
      "name": "Kay Madan Kato",
      "type": "Sandwich Spot",
      "description": "Kay Madan Kato is a sandwich spot located in the city.",
      "address": "Portail Des Guepes",
      "tel": null,
      "location": {
        "lat": 19.122124,
        "lon": -72.698641
      }
    }
  ],
  "airports": null,
  "_meta": {
    "generated_at": "2025-08-04T18:10:58.919452Z",
    "env": "development",
    "source": "justarrived-generator"
  }
}