{
  "json_language": "en",
  "country_code": "IN",
  "country_name": "India",
  "city_name": "Tezpur",
  "language": [
    "English"
  ],
  "lat": 26.63,
  "lon": 92.8,
  "currencies": {
    "INR": {
      "symbol": "₹",
      "name": "Indian rupee"
    }
  },
  "population": 102505,
  "welcome_message_title": "Welcome to Tezpur",
  "welcome_message_body": "Welcome to Tezpur, a charming city known for its rich history, cultural heritage, and natural beauty. We invite you to explore and enjoy the vibrant atmosphere and unique attractions that this city has to offer.",
  "welcome_message_image": null,
  "avg_prices": {
    "city": "tezpur",
    "currency": "usd",
    "avg_price_index": 3.811578947368421,
    "prices": {
      "meal": 1.22,
      "meal_for_two": 9.79,
      "fast_food": 6.78,
      "beer": 1.47,
      "imported_beer": 3.06,
      "coffee": 0.92,
      "soda": 0.49,
      "water_small": 0.12,
      "bus_ticket": 1.22,
      "monthly_pass": 18.36,
      "taxi_start": 0.49,
      "taxi_km": 0.49,
      "taxi_waiting": 0.8,
      "gasoline": 1.16,
      "mobile_tariff": 0.04,
      "internet": 8.57,
      "fitness": 9.79,
      "tennis": 3.67,
      "cinema": 3.98
    }
  },
  "emergency_numbers": {
    "general": "112",
    "ambulance": "102",
    "fire": "101",
    "police": "101"
  },
  "restaurants": [
    {
      "name": "Spring Valley",
      "type": "Indian Restaurant",
      "description": "Spring Valley is a indian restaurant located in the city.",
      "address": "",
      "tel": null,
      "location": {
        "lat": 26.634381913101837,
        "lon": 92.79508714461858
      }
    },
    {
      "name": "Delight Bakery",
      "type": "Bakery",
      "description": "Delight Bakery is a bakery located in Tezpur.",
      "address": "Chowk Bazar, Tezpur 784001, Assam",
      "tel": null,
      "location": {
        "lat": 26.62770642484285,
        "lon": 92.7762966221577
      }
    },
    {
      "name": "Heritage Tezpur",
      "type": "Indian Restaurant",
      "description": "Heritage Tezpur is a indian restaurant located in the city.",
      "address": "",
      "tel": null,
      "location": {
        "lat": 26.649686612839137,
        "lon": 92.78794255731842
      }
    },
    {
      "name": "KFC",
      "type": "Fried Chicken Joint",
      "description": "KFC is a fried chicken joint located in Tezpur.",
      "address": "Mission Chariali, Tezpur 784501, Assam",
      "tel": null,
      "location": {
        "lat": 26.655352,
        "lon": 92.772523
      }
    },
    {
      "name": "KF",
      "type": "Café",
      "description": "KF is a café located in Tezpur.",
      "address": "Mission Chariali (NH37A), Tezpur 784001, Assam",
      "tel": "03712 255 203",
      "location": {
        "lat": 26.654647762484792,
        "lon": 92.77307808613148
      }
    }
  ],
  "_meta": {
    "generated_at": "2025-08-04T11:44:08.326998Z",
    "env": "development",
    "source": "justarrived-generator"
  }
}