{
  "json_language": "en",
  "country_code": "IN",
  "country_name": "India",
  "city_name": "Wardha",
  "language": [
    "English"
  ],
  "lat": 20.7417,
  "lon": 78.6056,
  "currencies": {
    "INR": {
      "symbol": "₹",
      "name": "Indian rupee"
    }
  },
  "population": 106444,
  "welcome_message_title": "Welcome to Wardha",
  "welcome_message_body": "Welcome to Wardha, India! This charming city is known for its rich cultural heritage, peaceful atmosphere, and beautiful landscapes. We invite you to explore and enjoy all that Wardha has to offer during your visit.",
  "welcome_message_image": null,
  "avg_prices": {
    "city": "wardha",
    "currency": "usd",
    "avg_price_index": 3.9373684210526316,
    "prices": {
      "meal": 4.9,
      "meal_for_two": 12.24,
      "fast_food": 3.67,
      "beer": 2.33,
      "imported_beer": 3.98,
      "coffee": 2.04,
      "soda": 0.42,
      "water_small": 0.17,
      "bus_ticket": 0.37,
      "monthly_pass": 8.57,
      "taxi_start": 0.67,
      "taxi_km": 0.2,
      "taxi_waiting": 2.45,
      "gasoline": 1.36,
      "mobile_tariff": 0.01,
      "internet": 8.73,
      "fitness": 11.22,
      "tennis": 7.5,
      "cinema": 3.98
    }
  },
  "emergency_numbers": {
    "general": "112",
    "ambulance": "102",
    "fire": "101",
    "police": "101"
  },
  "restaurants": [
    {
      "name": "Domino's Pizza",
      "type": "Pizzeria",
      "description": "Domino's Pizza is a pizzeria located in Wardha.",
      "address": "Wardha 442001, Mahārāshtra",
      "tel": "080674 66725",
      "location": {
        "lat": 20.747961,
        "lon": 78.601845
      }
    },
    {
      "name": "Food Feast",
      "type": "Restaurant",
      "description": "Food Feast is a restaurant located in the city.",
      "address": "Mahārāshtra",
      "tel": null,
      "location": {
        "lat": 20.736172618326155,
        "lon": 78.59925846923666
      }
    },
    {
      "name": "Bagel shop",
      "type": "Bagel Shop",
      "description": "Bagel shop is a bagel shop located in the city.",
      "address": "",
      "tel": null,
      "location": {
        "lat": 20.73306655883789,
        "lon": 78.61968231201172
      }
    },
    {
      "name": "The Casbah",
      "type": "Restaurant",
      "description": "The Casbah is a restaurant located in the city.",
      "address": "",
      "tel": null,
      "location": {
        "lat": 20.751580623746328,
        "lon": 78.59150875229153
      }
    },
    {
      "name": "Olive Restaurant",
      "type": "Indian Restaurant",
      "description": "Olive Restaurant is a indian restaurant located in Wardha.",
      "address": "plot p 14 m.i.d.c., Wardha, Mahārāshtra",
      "tel": null,
      "location": {
        "lat": 20.739672121642396,
        "lon": 78.63901210739245
      }
    }
  ],
  "airports": null,
  "_meta": {
    "generated_at": "2025-08-04T18:14:47.420610Z",
    "env": "development",
    "source": "justarrived-generator"
  }
}