{
  "json_language": "en",
  "country_code": "IR",
  "country_name": "Iran",
  "city_name": "Jahrom",
  "language": [
    "Persian (Farsi)"
  ],
  "lat": 28.5147,
  "lon": 53.5731,
  "currencies": {
    "IRR": {
      "symbol": "﷼",
      "name": "Iranian rial"
    }
  },
  "population": 141634,
  "welcome_message_title": "Welcome to Jahrom",
  "welcome_message_body": "Welcome to Jahrom, Iran! Get ready to be enchanted by the city's historic charm, rich cultural heritage, and breathtaking natural beauty. We invite you to explore and enjoy everything that Jahrom has to offer.",
  "welcome_message_image": null,
  "avg_prices": {
    "city": "jahrom",
    "currency": "usd",
    "avg_price_index": 10.642631578947368,
    "prices": {
      "meal": 3.56,
      "meal_for_two": 68.97,
      "fast_food": 2.9,
      "beer": 1.0,
      "imported_beer": 0.5,
      "coffee": 1.98,
      "soda": 0.91,
      "water_small": 0.47,
      "bus_ticket": 0.24,
      "monthly_pass": 13.74,
      "taxi_start": 0.24,
      "taxi_km": 0.35,
      "taxi_waiting": 3.36,
      "gasoline": 0.71,
      "mobile_tariff": 0.02,
      "internet": 29.58,
      "fitness": 35.42,
      "tennis": 33.51,
      "cinema": 4.75
    }
  },
  "emergency_numbers": {
    "ambulance": "115",
    "fire": "123",
    "police": "110"
  },
  "restaurants": [
    {
      "name": "شیرینی ساقدوش",
      "type": "Bakery",
      "description": "شیرینی ساقدوش is a bakery located in the city.",
      "address": "فارس",
      "tel": null,
      "location": {
        "lat": 28.508101,
        "lon": 53.585705
      }
    },
    {
      "name": "نانوایی سنگک",
      "type": "Bakery",
      "description": "نانوایی سنگک is a bakery located in the city.",
      "address": "",
      "tel": null,
      "location": {
        "lat": 28.502851,
        "lon": 53.566273
      }
    },
    {
      "name": "رستوران حيدربابا",
      "type": "Restaurant",
      "description": "رستوران حيدربابا is a restaurant located in جهرم.",
      "address": "بلوار مصطفي خميني, جهرم, فارس",
      "tel": null,
      "location": {
        "lat": 28.50102,
        "lon": 53.570351
      }
    },
    {
      "name": "Barbecue Kenjeh | باربیکیو کنجه",
      "type": "Persian Restaurant",
      "description": "Barbecue Kenjeh | باربیکیو کنجه is a persian restaurant located in جهرم.",
      "address": "جهرم, فارس",
      "tel": null,
      "location": {
        "lat": 28.486601,
        "lon": 53.560959
      }
    },
    {
      "name": "باغ رستوران آیلند",
      "type": "Restaurant",
      "description": "باغ رستوران آیلند is a restaurant located in جهرم.",
      "address": "جهرم, فارس",
      "tel": null,
      "location": {
        "lat": 28.4984,
        "lon": 53.543602
      }
    }
  ],
  "_meta": {
    "generated_at": "2025-08-04T11:40:51.492780Z",
    "env": "development",
    "source": "justarrived-generator"
  }
}