{
  "json_language": "en",
  "country_code": "JP",
  "country_name": "Japan",
  "city_name": "Numazu",
  "language": [
    "Japanese"
  ],
  "lat": 35.0956,
  "lon": 138.8634,
  "currencies": {
    "JPY": {
      "symbol": "¥",
      "name": "Japanese yen"
    }
  },
  "population": 187653,
  "welcome_message_title": "Welcome to Numazu",
  "welcome_message_body": "Welcome to Numazu, Japan, a charming coastal city known for its stunning views of Mount Fuji and delicious seafood. We invite you to explore our beautiful city and enjoy all it has to offer!",
  "welcome_message_image": null,
  "avg_prices": {
    "city": "numazu",
    "currency": "usd",
    "avg_price_index": 15.450000000000001,
    "prices": {
      "meal": 7.22,
      "meal_for_two": 28.88,
      "fast_food": 5.78,
      "beer": 3.9,
      "imported_beer": 4.33,
      "coffee": 2.89,
      "soda": 0.72,
      "water_small": 0.36,
      "bus_ticket": 2.17,
      "monthly_pass": 57.75,
      "taxi_start": 5.78,
      "taxi_km": 1.44,
      "taxi_waiting": 19.06,
      "gasoline": 0.94,
      "mobile_tariff": 0.72,
      "internet": 25.27,
      "fitness": 86.63,
      "tennis": 28.88,
      "cinema": 10.83
    }
  },
  "emergency_numbers": {
    "ambulance": "119",
    "fire": "119",
    "police": "110"
  },
  "restaurants": [
    {
      "name": "桃屋",
      "type": "Deli",
      "description": "桃屋 is a deli located in 沼津市.",
      "address": "町方町5, 沼津市, 静岡県, 410-0882",
      "tel": "055-962-7824",
      "location": {
        "lat": 35.098185403939354,
        "lon": 138.8578580418627
      }
    },
    {
      "name": "浜忠上土町店",
      "type": "Japanese Restaurant",
      "description": "浜忠上土町店 is a japanese restaurant located in 沼津市.",
      "address": "上土町80, 沼津市, 静岡県, 410-0802",
      "tel": "055-919-3512",
      "location": {
        "lat": 35.098133,
        "lon": 138.85822
      }
    },
    {
      "name": "ねこと白鳥",
      "type": "Café",
      "description": "ねこと白鳥 is a café located in 沼津市.",
      "address": "大手町5-7-5 (つるかめ仲見世ビル B1F), 沼津市, 静岡県, 410-0801",
      "tel": "055-962-0425",
      "location": {
        "lat": 35.100091,
        "lon": 138.858048
      }
    },
    {
      "name": "沼津魚がし鮨 江戸前鮨 沼津店",
      "type": "Sushi Restaurant",
      "description": "沼津魚がし鮨 江戸前鮨 沼津店 is a sushi restaurant located in 沼津市.",
      "address": "大手町1-1-6 (イーラde 3F), 沼津市, 静岡県, 410-0801",
      "tel": "055-954-6080",
      "location": {
        "lat": 35.10188377598173,
        "lon": 138.85864364082124
      }
    },
    {
      "name": "寿司・お食事処 山正",
      "type": "Sushi Restaurant",
      "description": "寿司・お食事処 山正 is a sushi restaurant located in 沼津市.",
      "address": "平町3-14, 沼津市, 静岡県, 410-0036",
      "tel": "055-963-0377",
      "location": {
        "lat": 35.100870304489845,
        "lon": 138.86523376956347
      }
    }
  ],
  "airports": null,
  "_meta": {
    "generated_at": "2025-08-04T18:09:58.259225Z",
    "env": "development",
    "source": "justarrived-generator"
  }
}