{
  "json_language": "en",
  "country_code": "JP",
  "country_name": "Japan",
  "city_name": "Obihiro",
  "language": [
    "Japanese"
  ],
  "lat": 42.9167,
  "lon": 143.2,
  "currencies": {
    "JPY": {
      "symbol": "¥",
      "name": "Japanese yen"
    }
  },
  "population": 165684,
  "welcome_message_title": "Welcome to Obihiro",
  "welcome_message_body": "Welcome to Obihiro, Japan! Known for its beautiful cherry blossoms and delicious local cuisine, we invite you to explore and enjoy the charm of this vibrant city. We hope you have a wonderful stay.",
  "welcome_message_image": null,
  "avg_prices": {
    "city": "obihiro",
    "currency": "usd",
    "avg_price_index": 11.75263157894737,
    "prices": {
      "meal": 4.33,
      "meal_for_two": 14.44,
      "fast_food": 6.5,
      "beer": 2.17,
      "imported_beer": 2.17,
      "coffee": 3.25,
      "soda": 0.87,
      "water_small": 0.69,
      "bus_ticket": 1.59,
      "monthly_pass": 43.31,
      "taxi_start": 4.84,
      "taxi_km": 1.76,
      "taxi_waiting": 21.66,
      "gasoline": 1.16,
      "mobile_tariff": 0.51,
      "internet": 39.7,
      "fitness": 43.31,
      "tennis": 20.21,
      "cinema": 10.83
    }
  },
  "emergency_numbers": {
    "ambulance": "119",
    "fire": "119",
    "police": "110"
  },
  "restaurants": [
    {
      "name": "元祖豚丼のぱんちょう",
      "type": "Donburi Restaurant",
      "description": "元祖豚丼のぱんちょう is a donburi restaurant located in 帯広市.",
      "address": "西1条南11-19, 帯広市, 北海道, 080-0011",
      "tel": "0155-22-1974",
      "location": {
        "lat": 42.919262,
        "lon": 143.203563
      }
    },
    {
      "name": "インデアン",
      "type": "Japanese Curry Restaurant",
      "description": "インデアン is a japanese curry restaurant located in 帯広市.",
      "address": "西2条南10-1-1, 帯広市, 北海道, 080-0012",
      "tel": "0155-20-1818",
      "location": {
        "lat": 42.921204,
        "lon": 143.20207
      }
    },
    {
      "name": "六花亭帯広本店 喫茶室",
      "type": "Café",
      "description": "六花亭帯広本店 喫茶室 is a café located in 帯広市.",
      "address": "西2条南9-6, 帯広市, 北海道, 080-0012",
      "tel": "0120-126-666",
      "location": {
        "lat": 42.922208,
        "lon": 143.20244
      }
    },
    {
      "name": "Heiwaen (平和園 本店)",
      "type": "BBQ Joint",
      "description": "Heiwaen (平和園 本店) is a bbq joint located in 帯広市.",
      "address": "大通南12-1, 帯広市, 北海道, 080-0010",
      "tel": "0155-22-6151",
      "location": {
        "lat": 42.919151,
        "lon": 143.205302
      }
    },
    {
      "name": "豚丼のぶたはげ 帯広本店",
      "type": "Donburi Restaurant",
      "description": "豚丼のぶたはげ 帯広本店 is a donburi restaurant located in 帯広市.",
      "address": "西2条南12-9 (JR帯広駅エスタ帯広西館), 帯広市, 北海道",
      "tel": "0155-24-9822",
      "location": {
        "lat": 42.918276758682325,
        "lon": 143.20174714402916
      }
    }
  ],
  "_meta": {
    "generated_at": "2025-08-04T11:39:36.648222Z",
    "env": "development",
    "source": "justarrived-generator"
  }
}