{
  "json_language": "en",
  "country_code": "KR",
  "country_name": "Korea, South",
  "city_name": "Jeonghae",
  "language": [
    "Korean"
  ],
  "lat": 35.5667,
  "lon": 126.85,
  "currencies": {
    "KRW": {
      "symbol": "₩",
      "name": "South Korean won"
    }
  },
  "population": 110194,
  "welcome_message_title": "Welcome to Jeonghae",
  "welcome_message_body": "Welcome to Jeonghae, a charming city known for its beautiful coastline and rich history. We hope you'll explore and enjoy all the unique experiences this city has to offer.",
  "welcome_message_image": null,
  "avg_prices": {
    "city": "jeonghae",
    "currency": "usd",
    "avg_price_index": 14.06578947368421,
    "prices": {
      "meal": 7.07,
      "meal_for_two": 36.1,
      "fast_food": 5.05,
      "beer": 3.18,
      "imported_beer": 4.11,
      "coffee": 2.87,
      "soda": 0.99,
      "water_small": 0.77,
      "bus_ticket": 1.8,
      "monthly_pass": 72.19,
      "taxi_start": 4.15,
      "taxi_km": 1.8,
      "taxi_waiting": 17.33,
      "gasoline": 1.19,
      "mobile_tariff": 0.28,
      "internet": 35.81,
      "fitness": 56.19,
      "tennis": 1.93,
      "cinema": 14.44
    }
  },
  "emergency_numbers": {
    "ambulance": "119",
    "fire": "119",
    "police": "112"
  },
  "restaurants": [
    {
      "name": "맥도날드 McDonald's",
      "type": "Fast Food Restaurant",
      "description": "맥도날드 McDonald's is a fast food restaurant located in 정읍시.",
      "address": "남북로 51, 정읍시, 전라북도",
      "tel": null,
      "location": {
        "lat": 35.569661,
        "lon": 126.851814
      }
    },
    {
      "name": "BURGER KING (버거킹 정읍중앙점)",
      "type": "Fast Food Restaurant",
      "description": "BURGER KING (버거킹 정읍중앙점) is a fast food restaurant located in 정읍시.",
      "address": "남북로 28, 정읍시, 전라북도",
      "tel": "063-535-3246",
      "location": {
        "lat": 35.567909,
        "lon": 126.85039
      }
    },
    {
      "name": "Caffe Ti-amo",
      "type": "Café",
      "description": "Caffe Ti-amo is a café located in 정읍시.",
      "address": "정읍시, 전라북도",
      "tel": null,
      "location": {
        "lat": 35.56717135875591,
        "lon": 126.85137820807256
      }
    },
    {
      "name": "Dunkin' Donuts (던킨도너츠)",
      "type": "Donut Shop",
      "description": "Dunkin' Donuts (던킨도너츠) is a donut shop located in 정읍시.",
      "address": "서부산업도로 305 (정읍역점), 정읍시, 전라북도",
      "tel": null,
      "location": {
        "lat": 35.575653,
        "lon": 126.842531
      }
    },
    {
      "name": "국화회관",
      "type": "Korean Restaurant",
      "description": "국화회관 is a korean restaurant located in 정읍시.",
      "address": "광진구 긴고랑로12길 37 (Yeonji-dong), 정읍시, 전라북도",
      "tel": "063-536-5432",
      "location": {
        "lat": 35.570219098138146,
        "lon": 126.8454791915938
      }
    }
  ],
  "_meta": {
    "generated_at": "2025-08-04T11:43:18.012389Z",
    "env": "development",
    "source": "justarrived-generator"
  }
}