{
  "json_language": "en",
  "country_code": "KR",
  "country_name": "Korea, South",
  "city_name": "Yeosu",
  "language": [
    "Korean"
  ],
  "lat": 34.7333,
  "lon": 127.7333,
  "currencies": {
    "KRW": {
      "symbol": "₩",
      "name": "South Korean won"
    }
  },
  "population": 268823,
  "welcome_message_title": "Welcome to Yeosu",
  "welcome_message_body": "Welcome to Yeosu, a charming coastal city known for its beautiful beaches, delicious seafood, and stunning views. We hope you enjoy your time here and take the opportunity to explore all that Yeosu has to offer!",
  "welcome_message_image": null,
  "avg_prices": {
    "city": "yeosu",
    "currency": "usd",
    "avg_price_index": 14.06578947368421,
    "prices": {
      "meal": 7.07,
      "meal_for_two": 36.1,
      "fast_food": 5.05,
      "beer": 3.18,
      "imported_beer": 4.11,
      "coffee": 2.87,
      "soda": 0.99,
      "water_small": 0.77,
      "bus_ticket": 1.8,
      "monthly_pass": 72.19,
      "taxi_start": 4.15,
      "taxi_km": 1.8,
      "taxi_waiting": 17.33,
      "gasoline": 1.19,
      "mobile_tariff": 0.28,
      "internet": 35.81,
      "fitness": 56.19,
      "tennis": 1.93,
      "cinema": 14.44
    }
  },
  "emergency_numbers": {
    "ambulance": "119",
    "fire": "119",
    "police": "112"
  },
  "restaurants": [
    {
      "name": "꽃돌게장1번가",
      "type": "Seafood Restaurant",
      "description": "꽃돌게장1번가 is a seafood restaurant located in Yeosu.",
      "address": "봉산2로 36, Yeosu, 전라남도, 59764",
      "tel": "061-644-0003",
      "location": {
        "lat": 34.73305351092692,
        "lon": 127.72596500149763
      }
    },
    {
      "name": "복춘식당",
      "type": "Korean Restaurant",
      "description": "복춘식당 is a korean restaurant located in Yeosu.",
      "address": "교동남1길 5-8, 여수시, 전라남도, 550-060",
      "tel": "061-662-5260",
      "location": {
        "lat": 34.73972394115179,
        "lon": 127.73411677607815
      }
    },
    {
      "name": "낭만카페",
      "type": "Café",
      "description": "낭만카페 is a café located in Yeosu.",
      "address": "고소5길 11, 여수시, 전라남도, 59739",
      "tel": "061-661-1188",
      "location": {
        "lat": 34.738769222043906,
        "lon": 127.7403974533081
      }
    },
    {
      "name": "7공주식당",
      "type": "Seafood Restaurant",
      "description": "7공주식당 is a seafood restaurant located in Yeosu.",
      "address": "교동시장2길 13-3, 여수시, 전라남도",
      "tel": "061-663-1580",
      "location": {
        "lat": 34.73906709717166,
        "lon": 127.73081730662365
      }
    },
    {
      "name": "명동게장",
      "type": "Korean Restaurant",
      "description": "명동게장 is a korean restaurant located in the city.",
      "address": "",
      "tel": "061-642-3735",
      "location": {
        "lat": 34.732885487693295,
        "lon": 127.7219184286974
      }
    }
  ],
  "_meta": {
    "generated_at": "2025-08-04T11:36:36.284922Z",
    "env": "development",
    "source": "justarrived-generator"
  }
}