{
  "json_language": "en",
  "country_code": "LT",
  "country_name": "Lithuania",
  "city_name": "Vilnius",
  "language": [
    "Lithuanian"
  ],
  "lat": 54.6872,
  "lon": 25.28,
  "currencies": {
    "EUR": {
      "symbol": "€",
      "name": "Euro"
    }
  },
  "population": 581475,
  "welcome_message_title": "Welcome to Vilnius",
  "welcome_message_body": "Welcome to Vilnius, Lithuania! Get ready to immerse yourself in the city's charming old town, rich history, and vibrant cultural scene. We invite you to explore and enjoy all that Vilnius has to offer.",
  "welcome_message_image": null,
  "avg_prices": {
    "city": "vilnius",
    "currency": "usd",
    "avg_price_index": 10.934736842105265,
    "prices": {
      "meal": 9.87,
      "meal_for_two": 51.93,
      "fast_food": 6.23,
      "beer": 4.15,
      "imported_beer": 4.15,
      "coffee": 2.92,
      "soda": 1.87,
      "water_small": 1.6,
      "bus_ticket": 0.78,
      "monthly_pass": 30.12,
      "taxi_start": 1.3,
      "taxi_km": 0.73,
      "taxi_waiting": 8.83,
      "gasoline": 1.9,
      "mobile_tariff": 0.17,
      "internet": 14.33,
      "fitness": 32.88,
      "tennis": 25.69,
      "cinema": 8.31
    }
  },
  "emergency_numbers": {
    "general": "112"
  },
  "restaurants": [
    {
      "name": "Farmer & The Ocean",
      "type": "Seafood Restaurant",
      "description": "Farmer & The Ocean is a seafood restaurant located in Vilnius.",
      "address": "25 Vilniaus gatvė, 01402 Vilnius",
      "tel": null,
      "location": {
        "lat": 54.685267,
        "lon": 25.279299
      }
    },
    {
      "name": "Tie Kepejai",
      "type": "Bakery",
      "description": "Tie Kepejai is a bakery located in Vilnius.",
      "address": "Tilto, Vilnius",
      "tel": null,
      "location": {
        "lat": 54.686884454670995,
        "lon": 25.284682077913125
      }
    },
    {
      "name": "Selfish Bistro",
      "type": "Seafood Restaurant",
      "description": "Selfish Bistro is a seafood restaurant located in Vilnius.",
      "address": "Vilniaus g. 29, 01402 Vilnius",
      "tel": "(8-656) 11330",
      "location": {
        "lat": 54.68450793014041,
        "lon": 25.279413451099195
      }
    },
    {
      "name": "Dziaugsmas",
      "type": "Restaurant",
      "description": "Dziaugsmas is a restaurant located in the city.",
      "address": "",
      "tel": null,
      "location": {
        "lat": 54.683005795392994,
        "lon": 25.28039417381635
      }
    },
    {
      "name": "Meat Lovers Pub",
      "type": "Steakhouse",
      "description": "Meat Lovers Pub is a steakhouse located in Vilnius.",
      "address": "Liejyklos g. 8, 01144 Vilnius",
      "tel": "(8-652) 51233",
      "location": {
        "lat": 54.683634,
        "lon": 25.283122
      }
    }
  ],
  "_meta": {
    "generated_at": "2025-08-04T11:33:52.478709Z",
    "env": "development",
    "source": "justarrived-generator"
  }
}