{
  "json_language": "en",
  "country_code": "LU",
  "country_name": "Luxembourg",
  "city_name": "Luxembourg",
  "language": [
    "German"
  ],
  "lat": 49.6117,
  "lon": 6.1319,
  "currencies": {
    "EUR": {
      "symbol": "€",
      "name": "Euro"
    }
  },
  "population": 132780,
  "welcome_message_title": "Welcome to Luxembourg",
  "welcome_message_body": "\"Welcome to Luxembourg, a charming city known for its rich history and stunning architecture. We invite you to explore and enjoy all that this beautiful city has to offer.\"",
  "welcome_message_image": null,
  "avg_prices": {
    "city": "luxembourg",
    "currency": "usd",
    "avg_price_index": 19.25529411764706,
    "prices": {
      "meal": 20.49,
      "meal_for_two": 88.29,
      "fast_food": 10.39,
      "beer": 5.19,
      "imported_beer": 5.71,
      "coffee": 3.78,
      "soda": 3.1,
      "water_small": 3.31,
      "taxi_start": 4.93,
      "taxi_km": 3.12,
      "taxi_waiting": 36.35,
      "gasoline": 1.69,
      "mobile_tariff": 0.26,
      "internet": 55.69,
      "fitness": 48.95,
      "tennis": 23.63,
      "cinema": 12.46
    }
  },
  "emergency_numbers": {
    "general": "112",
    "police": "113"
  },
  "restaurants": [
    {
      "name": "Konrad Café & Bar",
      "type": "Café",
      "description": "Konrad Café & Bar is a café located in Lëtzebuerg.",
      "address": "Rue du Nord 7, 2229 Lëtzebuerg",
      "tel": "26 20 18 94",
      "location": {
        "lat": 49.61213692731073,
        "lon": 6.132337201840857
      }
    },
    {
      "name": "Restaurant Um Dierfgen",
      "type": "German Restaurant",
      "description": "Restaurant Um Dierfgen is a german restaurant located in Lëtzebuerg.",
      "address": "6 Côte d'Eich, L-1450 Lëtzebuerg",
      "tel": "22 61 41",
      "location": {
        "lat": 49.612020956081444,
        "lon": 6.131498723900834
      }
    },
    {
      "name": "Cereal Lovers",
      "type": "Café",
      "description": "Cereal Lovers is a café located in Lëtzebuerg.",
      "address": "11C place du Théâtre, 2613 Lëtzebuerg",
      "tel": "20 60 96 09",
      "location": {
        "lat": 49.61271962653255,
        "lon": 6.130135197038134
      }
    },
    {
      "name": "Onesto",
      "type": "Italian Restaurant",
      "description": "Onesto is a italian restaurant located in Lëtzebuerg.",
      "address": "Rue du Nord 11, 2229 Lëtzebuerg",
      "tel": "22 38 18",
      "location": {
        "lat": 49.61225540550359,
        "lon": 6.132414191989978
      }
    },
    {
      "name": "Charles",
      "type": "Sandwich Spot",
      "description": "Charles is a sandwich spot located in Lëtzebuerg.",
      "address": "rue Chimay 19, 1333 Lëtzebuerg",
      "tel": "27 99 38 38",
      "location": {
        "lat": 49.61023320828009,
        "lon": 6.129631917091975
      }
    }
  ],
  "_meta": {
    "generated_at": "2025-08-04T11:41:24.340883Z",
    "env": "development",
    "source": "justarrived-generator"
  }
}