{
  "json_language": "en",
  "country_code": "MA",
  "country_name": "Morocco",
  "city_name": "Ait Melloul",
  "language": [
    "Arabic"
  ],
  "lat": 30.3342,
  "lon": -9.4972,
  "currencies": {
    "MAD": {
      "symbol": "د.م.",
      "name": "Moroccan dirham"
    }
  },
  "population": 210870,
  "welcome_message_title": "Welcome to Ait Melloul",
  "welcome_message_body": "Welcome to Ait Melloul, a charming city known for its beautiful parks and vibrant markets. We invite you to explore and enjoy the city's unique culture and warm hospitality during your stay.",
  "welcome_message_image": null,
  "avg_prices": {
    "city": "ait melloul",
    "currency": "usd",
    "avg_price_index": 5.157368421052631,
    "prices": {
      "meal": 2.79,
      "meal_for_two": 9.3,
      "fast_food": 4.65,
      "beer": 2.79,
      "imported_beer": 3.63,
      "coffee": 1.26,
      "soda": 0.52,
      "water_small": 0.28,
      "bus_ticket": 0.37,
      "monthly_pass": 8.37,
      "taxi_start": 0.47,
      "taxi_km": 0.27,
      "taxi_waiting": 3.26,
      "gasoline": 1.14,
      "mobile_tariff": 0.08,
      "internet": 23.46,
      "fitness": 11.17,
      "tennis": 17.83,
      "cinema": 6.35
    }
  },
  "emergency_numbers": {
    "ambulance": "15",
    "fire": "15",
    "police": "19"
  },
  "restaurants": [
    {
      "name": "Arena Blanca",
      "type": "Café",
      "description": "Arena Blanca is a café located in the city.",
      "address": "",
      "tel": null,
      "location": {
        "lat": 30.3339,
        "lon": -9.503819
      }
    },
    {
      "name": "Café Marina",
      "type": "Café",
      "description": "Café Marina is a café located in Aït Melloul.",
      "address": "86150 Aït Melloul",
      "tel": null,
      "location": {
        "lat": 30.332039,
        "lon": -9.504248
      }
    },
    {
      "name": "Déjeuner",
      "type": "Restaurant",
      "description": "Déjeuner is a restaurant located in Ait Melloul.",
      "address": "80000 Ait Melloul",
      "tel": null,
      "location": {
        "lat": 30.337812,
        "lon": -9.504111
      }
    },
    {
      "name": "Time",
      "type": "Fast Food Restaurant",
      "description": "Time is a fast food restaurant located in the city.",
      "address": "",
      "tel": null,
      "location": {
        "lat": 30.348915472258295,
        "lon": -9.503521328026203
      }
    },
    {
      "name": "Station Petromin",
      "type": "Restaurant",
      "description": "Station Petromin is a restaurant located in تقي.",
      "address": "تقي",
      "tel": null,
      "location": {
        "lat": 30.315696583718005,
        "lon": -9.49589420698427
      }
    }
  ],
  "_meta": {
    "generated_at": "2025-08-04T11:38:02.935325Z",
    "env": "development",
    "source": "justarrived-generator"
  }
}