{
  "json_language": "en",
  "country_code": "ML",
  "country_name": "Mali",
  "city_name": "Bamako",
  "language": [
    "French"
  ],
  "lat": 12.6458,
  "lon": -7.9922,
  "currencies": {
    "XOF": {
      "symbol": "Fr",
      "name": "West African CFA franc"
    }
  },
  "population": 4227569,
  "welcome_message_title": "Welcome to Bamako",
  "welcome_message_body": "Welcome to Bamako, Mali! Get ready to immerse yourself in the vibrant culture, rich history, and beautiful landscapes of this dynamic city. We invite you to explore and enjoy all that Bamako has to offer.",
  "welcome_message_image": "https://images.unsplash.com/photo-1663602535131-e1936a6f368a?crop=entropy&cs=tinysrgb&fit=max&fm=jpg&ixid=M3w3ODcwNTN8MHwxfHNlYXJjaHwxfHxCYW1ha298ZW58MHx8fHwxNzU0MjYyNDc0fDA&ixlib=rb-4.1.0&q=80&w=1080",
  "avg_prices": {
    "city": "bamako",
    "currency": "usd",
    "avg_price_index": 12.645333333333333,
    "prices": {
      "meal": 4.72,
      "meal_for_two": 51.68,
      "fast_food": 4.83,
      "beer": 2.0,
      "imported_beer": 3.0,
      "coffee": 2.88,
      "soda": 0.77,
      "water_small": 0.62,
      "bus_ticket": 4.67,
      "gasoline": 1.22,
      "mobile_tariff": 0.21,
      "internet": 29.27,
      "fitness": 63.28,
      "tennis": 14.53,
      "cinema": 6.0
    }
  },
  "emergency_numbers": {
    "ambulance": "15",
    "fire": "17",
    "police": "18"
  },
  "restaurants": [
    {
      "name": "Soukothai",
      "type": "Thai Restaurant",
      "description": "Soukothai is a thai restaurant located in Bamako.",
      "address": "Bamako",
      "tel": null,
      "location": {
        "lat": 12.636359,
        "lon": -7.998936
      }
    },
    {
      "name": "Da Guido",
      "type": "Pizzeria",
      "description": "Da Guido is a pizzeria located in Bamako.",
      "address": "Aci 2000, Bamako",
      "tel": null,
      "location": {
        "lat": 12.632889209112555,
        "lon": -8.017512643990742
      }
    },
    {
      "name": "Le Relax",
      "type": "Café",
      "description": "Le Relax is a café located in Bamako.",
      "address": "Bamako",
      "tel": null,
      "location": {
        "lat": 12.65450541178484,
        "lon": -7.977701125341176
      }
    },
    {
      "name": "Zorba le Grec",
      "type": "Greek Restaurant",
      "description": "Zorba le Grec is a greek restaurant located in Bamako.",
      "address": "Hamdallaye Rue 213, Bamako",
      "tel": "70 96 00 00",
      "location": {
        "lat": 12.639579722281619,
        "lon": -8.023829765457089
      }
    },
    {
      "name": "Casino de l'amitie",
      "type": "African Restaurant",
      "description": "Casino de l'amitie is a african restaurant located in Bamako.",
      "address": "Bamako",
      "tel": null,
      "location": {
        "lat": 12.639198,
        "lon": -7.992883
      }
    }
  ],
  "_meta": {
    "generated_at": "2025-08-04T11:31:40.390588Z",
    "env": "development",
    "source": "justarrived-generator"
  }
}