{
  "json_language": "en",
  "country_code": "MM",
  "country_name": "Burma",
  "city_name": "Myitkyina",
  "language": [
    "Burmese"
  ],
  "lat": 25.3833,
  "lon": 97.4,
  "currencies": {
    "MMK": {
      "symbol": "Ks",
      "name": "Burmese kyat"
    }
  },
  "population": 243031,
  "welcome_message_title": "Welcome to Myitkyina",
  "welcome_message_body": "Welcome to Myitkyina, the charming capital of Kachin State in Burma! Known for its natural beauty, friendly locals, and rich cultural heritage, we invite you to explore and enjoy all that this vibrant city has to offer.",
  "welcome_message_image": null,
  "avg_prices": {
    "city": "myitkyina",
    "currency": "usd",
    "avg_price_index": 4.254736842105263,
    "prices": {
      "meal": 3.67,
      "meal_for_two": 11.02,
      "fast_food": 5.51,
      "beer": 1.84,
      "imported_beer": 2.33,
      "coffee": 1.47,
      "soda": 0.47,
      "water_small": 0.18,
      "bus_ticket": 0.24,
      "monthly_pass": 6.12,
      "taxi_start": 0.61,
      "taxi_km": 0.37,
      "taxi_waiting": 1.22,
      "gasoline": 1.71,
      "mobile_tariff": 0.01,
      "internet": 12.24,
      "fitness": 24.49,
      "tennis": 1.22,
      "cinema": 6.12
    }
  },
  "emergency_numbers": {
    "general": "112"
  },
  "restaurants": [
    {
      "name": "ဝန္းရံခ",
      "type": "Burmese Restaurant",
      "description": "ဝန္းရံခ is a burmese restaurant located in the city.",
      "address": "",
      "tel": null,
      "location": {
        "lat": 25.38541926755436,
        "lon": 97.39164380104144
      }
    },
    {
      "name": "Long  Ga Pa Restaurent",
      "type": "Asian Restaurant",
      "description": "Long  Ga Pa Restaurent is a asian restaurant located in Myitkyina.",
      "address": "Manaw Field, Myitkyina, Kachin State",
      "tel": null,
      "location": {
        "lat": 25.401067,
        "lon": 97.407089
      }
    },
    {
      "name": "ရွန္းရွန္း",
      "type": "Burmese Restaurant",
      "description": "ရွန္းရွန္း is a burmese restaurant located in Myitkyina.",
      "address": "Myitkyina, Kachin State",
      "tel": null,
      "location": {
        "lat": 25.424782,
        "lon": 97.395386
      }
    },
    {
      "name": "လက္ရာသစ္",
      "type": "Café",
      "description": "လက္ရာသစ္ is a café located in the city.",
      "address": "ဝိုင္းေမာ္",
      "tel": null,
      "location": {
        "lat": 25.349625,
        "lon": 97.435277
      }
    },
    {
      "name": "Green Garden",
      "type": "Burmese Restaurant",
      "description": "Green Garden is a burmese restaurant located in Myitkyina.",
      "address": "10 Miles, Myitkyina, Kachin State",
      "tel": null,
      "location": {
        "lat": 25.494459,
        "lon": 97.452104
      }
    }
  ],
  "_meta": {
    "generated_at": "2025-08-04T11:37:11.954902Z",
    "env": "development",
    "source": "justarrived-generator"
  }
}