{
  "json_language": "en",
  "country_code": "MM",
  "country_name": "Burma",
  "city_name": "Mawlamyine",
  "language": [
    "Burmese"
  ],
  "lat": 16.4847,
  "lon": 97.6258,
  "currencies": {
    "MMK": {
      "symbol": "Ks",
      "name": "Burmese kyat"
    }
  },
  "population": 253734,
  "welcome_message_title": "Welcome to Mawlamyine",
  "welcome_message_body": "Welcome to Mawlamyine, the charming city known for its colonial architecture, vibrant markets, and stunning pagodas. We hope you enjoy your time here and take the opportunity to explore all that this beautiful city has to offer.",
  "welcome_message_image": null,
  "avg_prices": {
    "city": "mawlamyine",
    "currency": "usd",
    "avg_price_index": 6.896842105263158,
    "prices": {
      "meal": 1.12,
      "meal_for_two": 14.75,
      "fast_food": 7.02,
      "beer": 2.53,
      "imported_beer": 4.21,
      "coffee": 1.83,
      "soda": 0.53,
      "water_small": 0.4,
      "bus_ticket": 0.56,
      "monthly_pass": 28.09,
      "taxi_start": 1.26,
      "taxi_km": 0.7,
      "taxi_waiting": 5.06,
      "gasoline": 1.21,
      "mobile_tariff": 0.06,
      "internet": 14.05,
      "fitness": 41.2,
      "tennis": 1.4,
      "cinema": 5.06
    }
  },
  "emergency_numbers": {
    "general": "112"
  },
  "restaurants": [
    {
      "name": "My City Cafe",
      "type": "Café",
      "description": "My City Cafe is a café located in မော်လမြိုင်.",
      "address": "မော်လမြိုင်, Mon State",
      "tel": null,
      "location": {
        "lat": 16.477262,
        "lon": 97.620528
      }
    },
    {
      "name": "YKKO Mawlamyaing",
      "type": "Noodle Restaurant",
      "description": "YKKO Mawlamyaing is a noodle restaurant located in the city.",
      "address": "",
      "tel": null,
      "location": {
        "lat": 16.480693317180332,
        "lon": 97.61867874328534
      }
    },
    {
      "name": "Beer Garden II",
      "type": "BBQ Joint",
      "description": "Beer Garden II is a bbq joint located in မော်လမြိုင်.",
      "address": "58 Strand Road (U Zina Payar Road), မော်လမြိုင်, Mon State",
      "tel": null,
      "location": {
        "lat": 16.485477890622672,
        "lon": 97.62173428197457
      }
    },
    {
      "name": "Night Market",
      "type": "Restaurant",
      "description": "Night Market is a restaurant located in the city.",
      "address": "",
      "tel": null,
      "location": {
        "lat": 16.481893814055866,
        "lon": 97.61889056140392
      }
    },
    {
      "name": "Grandmother & Grandfather Restaurant",
      "type": "Burmese Restaurant",
      "description": "Grandmother & Grandfather Restaurant is a burmese restaurant located in the city.",
      "address": "",
      "tel": null,
      "location": {
        "lat": 16.488161,
        "lon": 97.61819
      }
    }
  ],
  "_meta": {
    "generated_at": "2025-08-04T11:36:54.229180Z",
    "env": "development",
    "source": "justarrived-generator"
  }
}