{
  "json_language": "en",
  "country_code": "NG",
  "country_name": "Nigeria",
  "city_name": "Ilobu",
  "language": [
    "English"
  ],
  "lat": 7.84,
  "lon": 4.486,
  "currencies": {
    "NGN": {
      "symbol": "â‚¦",
      "name": "Nigerian naira"
    }
  },
  "population": 118097,
  "welcome_message_title": "Welcome to Ilobu",
  "welcome_message_body": "Welcome to Ilobu, Nigeria! Get ready to be charmed by the city's rich history, vibrant culture, and friendly locals. We invite you to explore and enjoy all that Ilobu has to offer.",
  "welcome_message_image": null,
  "avg_prices": {
    "city": "ilobu",
    "currency": "usd",
    "avg_price_index": 3.9557894736842103,
    "prices": {
      "meal": 1.58,
      "meal_for_two": 11.26,
      "fast_food": 3.94,
      "beer": 0.79,
      "imported_beer": 1.13,
      "coffee": 1.58,
      "soda": 0.31,
      "water_small": 0.23,
      "bus_ticket": 0.11,
      "monthly_pass": 13.52,
      "taxi_start": 0.9,
      "taxi_km": 2.25,
      "taxi_waiting": 1.13,
      "gasoline": 0.34,
      "mobile_tariff": 0.04,
      "internet": 22.53,
      "fitness": 9.01,
      "tennis": 1.13,
      "cinema": 3.38
    }
  },
  "emergency_numbers": {
    "ambulance": "199"
  },
  "restaurants": [
    {
      "name": "Finger Licking",
      "type": "African Restaurant",
      "description": "Finger Licking is a african restaurant located in Osogbo.",
      "address": "Opposite Old Governors Office (Gbongan Road), Osogbo 23405, Osun State",
      "tel": null,
      "location": {
        "lat": 7.777457389601988,
        "lon": 4.537521724663388
      }
    },
    {
      "name": "Ostrich",
      "type": "Bakery",
      "description": "Ostrich is a bakery located in the city.",
      "address": "",
      "tel": null,
      "location": {
        "lat": 7.779752541187557,
        "lon": 4.54736078479422
      }
    },
    {
      "name": "Ostrich bakery",
      "type": "Bakery",
      "description": "Ostrich bakery is a bakery located in the city.",
      "address": "",
      "tel": null,
      "location": {
        "lat": 7.789825137709787,
        "lon": 4.473339971993999
      }
    },
    {
      "name": "O3 Bar & Lounge",
      "type": "Restaurant",
      "description": "O3 Bar & Lounge is a restaurant located in the city.",
      "address": "Egbedore, Osun State",
      "tel": null,
      "location": {
        "lat": 7.788637,
        "lon": 4.506433
      }
    },
    {
      "name": "Buketi Africa",
      "type": "Restaurant",
      "description": "Buketi Africa is a restaurant located in the city.",
      "address": "",
      "tel": null,
      "location": {
        "lat": 7.779368373689422,
        "lon": 4.551933485633698
      }
    }
  ],
  "airports": null,
  "_meta": {
    "generated_at": "2025-08-04T18:13:46.637677Z",
    "env": "development",
    "source": "justarrived-generator"
  }
}