{
  "json_language": "en",
  "country_code": "NP",
  "country_name": "Nepal",
  "city_name": "Tokha",
  "language": [
    "Nepali"
  ],
  "lat": 27.75,
  "lon": 85.3333,
  "currencies": {
    "NPR": {
      "symbol": "₨",
      "name": "Nepalese rupee"
    }
  },
  "population": 133755,
  "welcome_message_title": "Welcome to Tokha",
  "welcome_message_body": "Welcome to Tokha, Nepal! This charming city is known for its picturesque landscapes, vibrant culture, and warm hospitality. We invite you to explore and enjoy everything it has to offer during your visit.",
  "welcome_message_image": null,
  "avg_prices": {
    "city": "tokha",
    "currency": "usd",
    "avg_price_index": 5.531578947368421,
    "prices": {
      "meal": 2.29,
      "meal_for_two": 22.95,
      "fast_food": 7.65,
      "beer": 2.37,
      "imported_beer": 3.06,
      "coffee": 1.44,
      "soda": 0.44,
      "water_small": 0.18,
      "bus_ticket": 0.19,
      "monthly_pass": 4.59,
      "taxi_start": 2.29,
      "taxi_km": 0.76,
      "taxi_waiting": 3.82,
      "gasoline": 1.17,
      "mobile_tariff": 0.02,
      "internet": 12.11,
      "fitness": 28.01,
      "tennis": 7.94,
      "cinema": 3.82
    }
  },
  "emergency_numbers": {
    "ambulance": "102",
    "fire": "101",
    "police": "110"
  },
  "restaurants": [
    {
      "name": "Cafe Nina",
      "type": "American Restaurant",
      "description": "Cafe Nina is a american restaurant located in the city.",
      "address": "Maharajgunj",
      "tel": "985-1130043",
      "location": {
        "lat": 27.73783604487085,
        "lon": 85.33412435835046
      }
    },
    {
      "name": "Momo Magic",
      "type": "Asian Restaurant",
      "description": "Momo Magic is a asian restaurant located in काठमाडौं.",
      "address": "maharajgunj (maharajgunj), काठमाडौं",
      "tel": "01-4720354",
      "location": {
        "lat": 27.735292651400602,
        "lon": 85.33164993720082
      }
    },
    {
      "name": "European Bakery",
      "type": "Bakery",
      "description": "European Bakery is a bakery located in काठमाडौं.",
      "address": "Baluwatar, काठमाडौं",
      "tel": "01-4422047",
      "location": {
        "lat": 27.727959246116132,
        "lon": 85.33428022161691
      }
    },
    {
      "name": "Le Sherpa",
      "type": "French Restaurant",
      "description": "Le Sherpa is a french restaurant located in काठमाडौं.",
      "address": "Maharajgunj, काठमाडौं",
      "tel": null,
      "location": {
        "lat": 27.731391,
        "lon": 85.328407
      }
    },
    {
      "name": "Kotetsu",
      "type": "Japanese Restaurant",
      "description": "Kotetsu is a japanese restaurant located in the city.",
      "address": "",
      "tel": null,
      "location": {
        "lat": 27.728582032693737,
        "lon": 85.32496751541845
      }
    }
  ],
  "_meta": {
    "generated_at": "2025-08-04T11:41:18.842777Z",
    "env": "development",
    "source": "justarrived-generator"
  }
}