{
  "json_language": "en",
  "country_code": "NZ",
  "country_name": "New Zealand",
  "city_name": "Northcote",
  "language": [
    "English"
  ],
  "lat": -36.8019,
  "lon": 174.7494,
  "currencies": {
    "NZD": {
      "symbol": "$",
      "name": "New Zealand dollar"
    }
  },
  "population": 205605,
  "welcome_message_title": "Welcome to Northcote",
  "welcome_message_body": "Welcome to Northcote, New Zealand! Get ready to experience the charm of this beautiful city, known for its stunning vistas, vibrant arts scene, and friendly locals. We invite you to explore and enjoy all that Northcote has to offer.",
  "welcome_message_image": null,
  "avg_prices": {
    "city": "northcote",
    "currency": "usd",
    "avg_price_index": 22.570000000000004,
    "prices": {
      "meal": 15.53,
      "meal_for_two": 74.56,
      "fast_food": 9.32,
      "beer": 6.52,
      "imported_beer": 6.99,
      "coffee": 3.47,
      "soda": 2.38,
      "water_small": 2.06,
      "bus_ticket": 2.53,
      "monthly_pass": 133.58,
      "taxi_start": 2.49,
      "taxi_km": 1.86,
      "taxi_waiting": 37.28,
      "gasoline": 1.84,
      "mobile_tariff": 0.26,
      "internet": 53.59,
      "fitness": 45.1,
      "tennis": 16.42,
      "cinema": 13.05
    }
  },
  "emergency_numbers": {
    "general": "112"
  },
  "restaurants": [
    {
      "name": "The Engine Room",
      "type": "Restaurant",
      "description": "The Engine Room is a restaurant located in Auckland.",
      "address": "115 Queen St, Auckland 0627",
      "tel": "09 480 9502",
      "location": {
        "lat": -36.81796614457678,
        "lon": 174.74546334513235
      }
    },
    {
      "name": "Honey",
      "type": "Café",
      "description": "Honey is a café located in Auckland.",
      "address": "Huron St, Auckland",
      "tel": "09 489 4000",
      "location": {
        "lat": -36.78922710509704,
        "lon": 174.77056370211218
      }
    },
    {
      "name": "MIMOSA",
      "type": "Café",
      "description": "MIMOSA is a café located in Takapuna.",
      "address": "460 Lake Rd, Takapuna",
      "tel": "09 486 2020",
      "location": {
        "lat": -36.78967020965858,
        "lon": 174.77266493164115
      }
    },
    {
      "name": "Bushmans Grill",
      "type": "African Restaurant",
      "description": "Bushmans Grill is a african restaurant located in the city.",
      "address": "",
      "tel": "09 418 0056",
      "location": {
        "lat": -36.791115186277324,
        "lon": 174.74905091270062
      }
    },
    {
      "name": "Melba",
      "type": "Café",
      "description": "Melba is a café located in Takapuna.",
      "address": "62 Hurstmere Rd, Takapuna 0622",
      "tel": "09 489 0077",
      "location": {
        "lat": -36.7870943785188,
        "lon": 174.7727374279314
      }
    }
  ],
  "_meta": {
    "generated_at": "2025-08-04T11:38:10.386014Z",
    "env": "development",
    "source": "justarrived-generator"
  }
}