{
  "json_language": "en",
  "country_code": "PE",
  "country_name": "Peru",
  "city_name": "Huaraz",
  "language": [
    "Aymara"
  ],
  "lat": -9.5333,
  "lon": -77.5333,
  "currencies": {
    "PEN": {
      "symbol": "S/ ",
      "name": "Peruvian sol"
    }
  },
  "population": 118836,
  "welcome_message_title": "Welcome to Huaraz",
  "welcome_message_body": "Welcome to Huaraz, Peru! Get ready to experience the breathtaking beauty of the Andes, vibrant local culture, and world-class trekking. We hope you enjoy exploring all that our charming city has to offer.",
  "welcome_message_image": null,
  "avg_prices": {
    "city": "huaraz",
    "currency": "usd",
    "avg_price_index": 5.48,
    "prices": {
      "meal": 2.56,
      "meal_for_two": 10.89,
      "fast_food": 4.1,
      "beer": 1.28,
      "imported_beer": 3.33,
      "coffee": 2.43,
      "soda": 0.86,
      "water_small": 0.51,
      "bus_ticket": 0.22,
      "monthly_pass": 12.3,
      "taxi_start": 0.9,
      "taxi_km": 1.02,
      "taxi_waiting": 1.79,
      "gasoline": 1.16,
      "mobile_tariff": 0.13,
      "internet": 23.49,
      "fitness": 11.53,
      "tennis": 20.5,
      "cinema": 5.12
    }
  },
  "emergency_numbers": {
    "general": "112"
  },
  "restaurants": [
    {
      "name": "Café Andino",
      "type": "Café",
      "description": "Café Andino is a café located in Huaraz.",
      "address": "Jr. Lucar & Torre 530 (La Mar), Huaraz, 043",
      "tel": "(043) 421203",
      "location": {
        "lat": -9.527608756971729,
        "lon": -77.52829284302992
      }
    },
    {
      "name": "El Fogón",
      "type": "Peruvian Restaurant",
      "description": "El Fogón is a peruvian restaurant located in Huaraz.",
      "address": "Av. Mariscal Luzuriaga Nº 928, Huaraz",
      "tel": "(043) 421267",
      "location": {
        "lat": -9.531992606465796,
        "lon": -77.52953958006393
      }
    },
    {
      "name": "Crêperie Patrick",
      "type": "French Restaurant",
      "description": "Crêperie Patrick is a french restaurant located in Huaraz.",
      "address": "Av. Luzuriaga 422, Huaraz",
      "tel": "(043) 426037",
      "location": {
        "lat": -9.526433336268571,
        "lon": -77.52874542804265
      }
    },
    {
      "name": "Mi Comedia",
      "type": "Pizzeria",
      "description": "Mi Comedia is a pizzeria located in Huaraz.",
      "address": "Huaraz",
      "tel": "(043) 587954",
      "location": {
        "lat": -9.521071215809583,
        "lon": -77.5291634353523
      }
    },
    {
      "name": "California Cafe",
      "type": "Café",
      "description": "California Cafe is a café located in Huaraz.",
      "address": "Huaraz",
      "tel": "(043) 428354",
      "location": {
        "lat": -9.530936890680321,
        "lon": -77.52972848964457
      }
    }
  ],
  "_meta": {
    "generated_at": "2025-08-04T11:42:26.497651Z",
    "env": "development",
    "source": "justarrived-generator"
  }
}