{
  "json_language": "en",
  "country_code": "PH",
  "country_name": "Philippines",
  "city_name": "Bacolod",
  "language": [
    "English"
  ],
  "lat": 8.1892,
  "lon": 124.0238,
  "currencies": {
    "PHP": {
      "symbol": "â‚±",
      "name": "Philippine peso"
    }
  },
  "population": 24367,
  "welcome_message_title": "Welcome to Bacolod",
  "welcome_message_body": "\"Welcome to Bacolod, the City of Smiles! Get ready to experience the warm hospitality, delicious food, and vibrant festivals that this charming city is known for. We invite you to explore and enjoy all that Bacolod has to offer.\"",
  "welcome_message_image": null,
  "avg_prices": {
    "city": "bacolod",
    "currency": "usd",
    "avg_price_index": 5.56,
    "prices": {
      "meal": 2.12,
      "meal_for_two": 12.82,
      "fast_food": 2.65,
      "beer": 0.88,
      "imported_beer": 1.77,
      "coffee": 2.18,
      "soda": 0.5,
      "water_small": 0.39,
      "bus_ticket": 0.18,
      "monthly_pass": 10.61,
      "taxi_start": 0.71,
      "taxi_km": 0.24,
      "taxi_waiting": 2.12,
      "gasoline": 1.23,
      "mobile_tariff": 0.14,
      "internet": 30.41,
      "fitness": 27.85,
      "tennis": 4.42,
      "cinema": 4.42
    }
  },
  "emergency_numbers": {
    "general": "112"
  },
  "restaurants": [
    {
      "name": "Captain's Galley",
      "type": "Restaurant",
      "description": "Captain's Galley is a restaurant located in Bacolod.",
      "address": "9205 Bacolod, Lanao del Norte",
      "tel": null,
      "location": {
        "lat": 8.188749,
        "lon": 124.023723
      }
    },
    {
      "name": "Maigo Food House & Kambingan",
      "type": "Filipino Restaurant",
      "description": "Maigo Food House & Kambingan is a filipino restaurant located in Maigo.",
      "address": "National Highway, Poblacion, Maigo, Lanao del Norte",
      "tel": null,
      "location": {
        "lat": 8.156946514538216,
        "lon": 123.95566769573348
      }
    },
    {
      "name": "Bento 2",
      "type": "Sushi Restaurant",
      "description": "Bento 2 is a sushi restaurant located in the city.",
      "address": "",
      "tel": null,
      "location": {
        "lat": 8.164413000221602,
        "lon": 123.96455811448725
      }
    },
    {
      "name": "koko's best",
      "type": "Restaurant",
      "description": "koko's best is a restaurant located in the city.",
      "address": "",
      "tel": null,
      "location": {
        "lat": 8.157427787780762,
        "lon": 123.9555892944336
      }
    },
    {
      "name": "Balutan",
      "type": "Snack Place",
      "description": "Balutan is a snack place located in the city.",
      "address": "",
      "tel": null,
      "location": {
        "lat": 8.186247,
        "lon": 124.139256
      }
    }
  ],
  "_meta": {
    "generated_at": "2025-08-04T12:16:28.538099Z",
    "env": "development",
    "source": "justarrived-generator"
  }
}