{
  "json_language": "en",
  "country_code": "PH",
  "country_name": "Philippines",
  "city_name": "Danao",
  "language": [
    "English"
  ],
  "lat": 10.02,
  "lon": 124.27,
  "currencies": {
    "PHP": {
      "symbol": "â‚±",
      "name": "Philippine peso"
    }
  },
  "population": 20245,
  "welcome_message_title": "Welcome to Danao",
  "welcome_message_body": "Welcome to Danao, Philippines! Experience the charm of this vibrant city known for its stunning natural landscapes, rich cultural heritage, and warm hospitality. We invite you to explore and enjoy all that Danao has to offer.",
  "welcome_message_image": null,
  "avg_prices": {
    "city": "danao",
    "currency": "usd",
    "avg_price_index": 8.908421052631578,
    "prices": {
      "meal": 2.65,
      "meal_for_two": 20.33,
      "fast_food": 2.74,
      "beer": 1.41,
      "imported_beer": 2.03,
      "coffee": 2.48,
      "soda": 0.6,
      "water_small": 0.37,
      "bus_ticket": 0.27,
      "monthly_pass": 38.43,
      "taxi_start": 0.71,
      "taxi_km": 0.31,
      "taxi_waiting": 2.65,
      "gasoline": 1.37,
      "mobile_tariff": 0.1,
      "internet": 30.64,
      "fitness": 53.04,
      "tennis": 4.71,
      "cinema": 4.42
    }
  },
  "emergency_numbers": {
    "general": "112"
  },
  "restaurants": [
    {
      "name": "Pista Pride",
      "type": "Food Court",
      "description": "Pista Pride is a food court located in the city.",
      "address": "",
      "tel": null,
      "location": {
        "lat": 9.987485,
        "lon": 124.3399
      }
    },
    {
      "name": "Pistaplace",
      "type": "Asian Restaurant",
      "description": "Pistaplace is a asian restaurant located in the city.",
      "address": "",
      "tel": null,
      "location": {
        "lat": 9.987443,
        "lon": 124.339985
      }
    },
    {
      "name": "Manoy Baning Bbq Food Haus",
      "type": "Fast Food Restaurant",
      "description": "Manoy Baning Bbq Food Haus is a fast food restaurant located in the city.",
      "address": "Danao",
      "tel": null,
      "location": {
        "lat": 9.946206092834473,
        "lon": 124.22088623046875
      }
    },
    {
      "name": "Patchie Barbecue & Pochero",
      "type": "BBQ Joint",
      "description": "Patchie Barbecue & Pochero is a bbq joint located in the city.",
      "address": "Danao",
      "tel": null,
      "location": {
        "lat": 9.94651,
        "lon": 124.21945
      }
    },
    {
      "name": "Garaje Food House",
      "type": "Filipino Restaurant",
      "description": "Garaje Food House is a filipino restaurant located in Bohol, Eastern Visayas.",
      "address": "Trinidad, 6324 Bohol, Eastern Visayas",
      "tel": "0929 978 3651",
      "location": {
        "lat": 10.078484326876769,
        "lon": 124.34374451637268
      }
    }
  ],
  "_meta": {
    "generated_at": "2025-08-04T12:24:06.991751Z",
    "env": "development",
    "source": "justarrived-generator"
  }
}