{
  "json_language": "en",
  "country_code": "PH",
  "country_name": "Philippines",
  "city_name": "La Libertad",
  "language": [
    "English"
  ],
  "lat": 10.03,
  "lon": 123.22,
  "currencies": {
    "PHP": {
      "symbol": "₱",
      "name": "Philippine peso"
    }
  },
  "population": 41089,
  "welcome_message_title": "Welcome to La Libertad",
  "welcome_message_body": "\"Welcome to La Libertad, Philippines! Get ready to be enchanted by the city's stunning beaches, rich culture, and warm hospitality. We invite you to immerse yourself in all that La Libertad has to offer and create unforgettable memories.\"",
  "welcome_message_image": null,
  "avg_prices": {
    "city": "la libertad",
    "currency": "usd",
    "avg_price_index": 10.546842105263158,
    "prices": {
      "meal": 2.65,
      "meal_for_two": 40.0,
      "fast_food": 6.25,
      "beer": 2.0,
      "imported_beer": 4.95,
      "coffee": 2.33,
      "soda": 0.99,
      "water_small": 0.59,
      "bus_ticket": 0.3,
      "monthly_pass": 16.2,
      "taxi_start": 2.5,
      "taxi_km": 2.5,
      "taxi_waiting": 8.0,
      "gasoline": 0.74,
      "mobile_tariff": 0.15,
      "internet": 40.75,
      "fitness": 36.62,
      "tennis": 26.75,
      "cinema": 6.12
    }
  },
  "emergency_numbers": {
    "general": "112"
  },
  "restaurants": [
    {
      "name": "El Jalapeño",
      "type": "BBQ Joint",
      "description": "El Jalapeño is a bbq joint located in the city.",
      "address": "",
      "tel": null,
      "location": {
        "lat": 12.21658669129733,
        "lon": -85.16624705158839
      }
    },
    {
      "name": "Amy's Pizza",
      "type": "Restaurant",
      "description": "Amy's Pizza is a restaurant located in La Libertad.",
      "address": "La Libertad, Chontales",
      "tel": null,
      "location": {
        "lat": 12.216989,
        "lon": -85.16596
      }
    },
    {
      "name": "Rancho El Mineral",
      "type": "BBQ Joint",
      "description": "Rancho El Mineral is a bbq joint located in La Libertad.",
      "address": "De la alcaldía 1C al Norte, La Libertad, Chontales",
      "tel": null,
      "location": {
        "lat": 12.214035,
        "lon": -85.16979
      }
    },
    {
      "name": "Cafetín Divino Niño (Doña Gladys)",
      "type": "Breakfast Spot",
      "description": "Cafetín Divino Niño (Doña Gladys) is a breakfast spot located in the city.",
      "address": "",
      "tel": null,
      "location": {
        "lat": 12.131585,
        "lon": -85.11603
      }
    },
    {
      "name": "Posada Don Tobias",
      "type": "Restaurant",
      "description": "Posada Don Tobias is a restaurant located in San Pedro de Lóvago.",
      "address": "San Pedro De Lovago, Chontales",
      "tel": null,
      "location": {
        "lat": 12.132154138575242,
        "lon": -85.1130274400634
      }
    }
  ],
  "_meta": {
    "generated_at": "2025-08-04T11:59:54.381758Z",
    "env": "development",
    "source": "justarrived-generator"
  }
}