{
  "json_language": "en",
  "country_code": "PH",
  "country_name": "Philippines",
  "city_name": "Pandi",
  "language": [
    "English"
  ],
  "lat": 14.87,
  "lon": 120.95,
  "currencies": {
    "PHP": {
      "symbol": "₱",
      "name": "Philippine peso"
    }
  },
  "population": 155115,
  "welcome_message_title": "Welcome to Pandi",
  "welcome_message_body": "Welcome to Pandi, Philippines! Get ready to be charmed by our beautiful landscapes, friendly locals, and vibrant culture. We invite you to explore and enjoy all that our city has to offer.",
  "welcome_message_image": null,
  "avg_prices": {
    "city": "pandi",
    "currency": "usd",
    "avg_price_index": 6.247368421052632,
    "prices": {
      "meal": 2.92,
      "meal_for_two": 17.68,
      "fast_food": 3.53,
      "beer": 1.06,
      "imported_beer": 1.9,
      "coffee": 1.77,
      "soda": 0.96,
      "water_small": 0.51,
      "bus_ticket": 0.35,
      "monthly_pass": 8.84,
      "taxi_start": 0.71,
      "taxi_km": 0.24,
      "taxi_waiting": 1.68,
      "gasoline": 1.25,
      "mobile_tariff": 0.14,
      "internet": 26.52,
      "fitness": 40.33,
      "tennis": 3.54,
      "cinema": 4.77
    }
  },
  "emergency_numbers": {
    "general": "112"
  },
  "restaurants": [
    {
      "name": "Shakey’s",
      "type": "Pizzeria",
      "description": "Shakey’s is a pizzeria located in the city.",
      "address": "Sta.Maria Bulacan",
      "tel": null,
      "location": {
        "lat": 14.86461923346315,
        "lon": 120.94897353813697
      }
    },
    {
      "name": "Dunkin'",
      "type": "Donut Shop",
      "description": "Dunkin' is a donut shop located in the city.",
      "address": "",
      "tel": "(044) 661 0990",
      "location": {
        "lat": 14.86553135567351,
        "lon": 120.95724354679183
      }
    },
    {
      "name": "Shakey’s",
      "type": "Pizzeria",
      "description": "Shakey’s is a pizzeria located in Bulacan.",
      "address": "Sta. Maria Bypass Rd, 3017 Bulacan, Bulacan",
      "tel": null,
      "location": {
        "lat": 14.813368735635475,
        "lon": 120.94883661760264
      }
    },
    {
      "name": "Dunkin'",
      "type": "Donut Shop",
      "description": "Dunkin' is a donut shop located in Santa Maria.",
      "address": "J P Rizal St, Poblacion, 3022 Santa Maria, Bulacan",
      "tel": null,
      "location": {
        "lat": 14.81969882358626,
        "lon": 120.9626026387423
      }
    },
    {
      "name": "Max's Restaurant",
      "type": "Fried Chicken Joint",
      "description": "Max's Restaurant is a fried chicken joint located in Santa Maria.",
      "address": "Governor Fortunato Halili Ave, Brgy Bagbagin, 3022 Santa Maria, Bulacan",
      "tel": "(044) 641 3968",
      "location": {
        "lat": 14.81381565053912,
        "lon": 120.94933917649216
      }
    }
  ],
  "_meta": {
    "generated_at": "2025-08-04T11:40:05.803940Z",
    "env": "development",
    "source": "justarrived-generator"
  }
}