{
  "json_language": "en",
  "country_code": "PH",
  "country_name": "Philippines",
  "city_name": "Paniqui",
  "language": [
    "English"
  ],
  "lat": 15.6681,
  "lon": 120.5789,
  "currencies": {
    "PHP": {
      "symbol": "â‚±",
      "name": "Philippine peso"
    }
  },
  "population": 103003,
  "welcome_message_title": "Welcome to Paniqui",
  "welcome_message_body": "Welcome to Paniqui, a charming city known for its rich history, vibrant culture, and warm hospitality. We invite you to explore our beautiful city and immerse yourself in all it has to offer. Enjoy your stay!",
  "welcome_message_image": null,
  "avg_prices": {
    "city": "paniqui",
    "currency": "usd",
    "avg_price_index": 6.881052631578948,
    "prices": {
      "meal": 2.65,
      "meal_for_two": 21.22,
      "fast_food": 3.97,
      "beer": 0.97,
      "imported_beer": 1.77,
      "coffee": 1.59,
      "soda": 0.88,
      "water_small": 0.27,
      "bus_ticket": 0.27,
      "monthly_pass": 7.96,
      "taxi_start": 0.71,
      "taxi_km": 0.27,
      "taxi_waiting": 2.83,
      "gasoline": 1.22,
      "mobile_tariff": 0.18,
      "internet": 26.52,
      "fitness": 44.2,
      "tennis": 7.07,
      "cinema": 6.19
    }
  },
  "emergency_numbers": {
    "general": "112"
  },
  "restaurants": [
    {
      "name": "McDonald's",
      "type": "Fast Food Restaurant",
      "description": "McDonald's is a fast food restaurant located in Paniqui.",
      "address": "2307 Paniqui, Tarlac",
      "tel": null,
      "location": {
        "lat": 15.670533,
        "lon": 120.58291
      }
    },
    {
      "name": "McDonald's",
      "type": "Fast Food Restaurant",
      "description": "McDonald's is a fast food restaurant located in the city.",
      "address": "",
      "tel": null,
      "location": {
        "lat": 15.672439996854873,
        "lon": 120.58203656521539
      }
    },
    {
      "name": "Jollibee",
      "type": "Fast Food Restaurant",
      "description": "Jollibee is a fast food restaurant located in Paniqui.",
      "address": "McArthur Hwy, 2307 Paniqui, Tarlac",
      "tel": null,
      "location": {
        "lat": 15.671337731519328,
        "lon": 120.58521730825045
      }
    },
    {
      "name": "Jollibee",
      "type": "Fast Food Restaurant",
      "description": "Jollibee is a fast food restaurant located in Paniqui.",
      "address": "Zamora St., 2307 Paniqui, Tarlac",
      "tel": null,
      "location": {
        "lat": 15.668174283791979,
        "lon": 120.57962537035581
      }
    },
    {
      "name": "Dunkin'",
      "type": "Donut Shop",
      "description": "Dunkin' is a donut shop located in Paniqui.",
      "address": "2307 Paniqui, Tarlac",
      "tel": null,
      "location": {
        "lat": 15.667808,
        "lon": 120.586475
      }
    }
  ],
  "_meta": {
    "generated_at": "2025-08-04T11:44:04.887608Z",
    "env": "development",
    "source": "justarrived-generator"
  }
}