{
  "json_language": "en",
  "country_code": "PH",
  "country_name": "Philippines",
  "city_name": "Santo Domingo",
  "language": [
    "English"
  ],
  "lat": 17.6414,
  "lon": 120.4108,
  "currencies": {
    "PHP": {
      "symbol": "â‚±",
      "name": "Philippine peso"
    }
  },
  "population": 29041,
  "welcome_message_title": "Welcome to Santo Domingo",
  "welcome_message_body": "Welcome to Santo Domingo, Philippines, where the charm of its Spanish colonial history meets the beauty of its pristine beaches. Get ready to explore our vibrant city and enjoy the unique cultural experience it has to offer!",
  "welcome_message_image": null,
  "avg_prices": {
    "city": "santo domingo",
    "currency": "usd",
    "avg_price_index": 6.414736842105263,
    "prices": {
      "meal": 0.88,
      "meal_for_two": 12.38,
      "fast_food": 1.59,
      "beer": 1.24,
      "imported_beer": 1.77,
      "coffee": 1.77,
      "soda": 1.24,
      "water_small": 0.53,
      "bus_ticket": 0.19,
      "monthly_pass": 17.68,
      "taxi_start": 0.71,
      "taxi_km": 0.18,
      "taxi_waiting": 3.18,
      "gasoline": 1.3,
      "mobile_tariff": 0.12,
      "internet": 45.95,
      "fitness": 21.22,
      "tennis": 3.76,
      "cinema": 6.19
    }
  },
  "emergency_numbers": {
    "general": "112"
  },
  "restaurants": [
    {
      "name": "Comedor Vip",
      "type": "Caribbean Restaurant",
      "description": "Comedor Vip is a caribbean restaurant located in the city.",
      "address": "Tercer Piso (Lombardo)",
      "tel": null,
      "location": {
        "lat": 6.45645809173584,
        "lon": -75.16275787353516
      }
    },
    {
      "name": "Estadero Mall Rancho Grande",
      "type": "Restaurant",
      "description": "Estadero Mall Rancho Grande is a restaurant located in the city.",
      "address": "Antioquia",
      "tel": null,
      "location": {
        "lat": 6.54964642235613,
        "lon": -75.21087045794583
      }
    },
    {
      "name": "Punto Aparte",
      "type": "Diner",
      "description": "Punto Aparte is a diner located in the city.",
      "address": "",
      "tel": "311 5787590",
      "location": {
        "lat": 6.549999286086379,
        "lon": -75.21114167344676
      }
    },
    {
      "name": "El Llanerito",
      "type": "BBQ Joint",
      "description": "El Llanerito is a bbq joint located in Porce.",
      "address": "Porce, Antioquia",
      "tel": "(604) 3222199",
      "location": {
        "lat": 6.548528412987404,
        "lon": -75.213073408744
      }
    },
    {
      "name": "pescadito",
      "type": "Restaurant",
      "description": "pescadito is a restaurant located in the city.",
      "address": "",
      "tel": null,
      "location": {
        "lat": 6.540008068084717,
        "lon": -75.22854614257812
      }
    }
  ],
  "_meta": {
    "generated_at": "2025-08-04T12:10:09.024096Z",
    "env": "development",
    "source": "justarrived-generator"
  }
}