{
  "json_language": "en",
  "country_code": "PK",
  "country_name": "Pakistan",
  "city_name": "New Mirpur",
  "language": [
    "English"
  ],
  "lat": 33.15,
  "lon": 73.7333,
  "currencies": {
    "PKR": {
      "symbol": "₨",
      "name": "Pakistani rupee"
    }
  },
  "population": 124352,
  "welcome_message_title": "Welcome to New Mirpur",
  "welcome_message_body": "\"Welcome to New Mirpur, Pakistan! Get ready to be charmed by the city's beautiful landscapes, vibrant culture, and rich history. We invite you to explore and enjoy all that New Mirpur has to offer!\"",
  "welcome_message_image": null,
  "avg_prices": {
    "city": "new mirpur",
    "currency": "usd",
    "avg_price_index": 3.663157894736842,
    "prices": {
      "meal": 1.56,
      "meal_for_two": 12.81,
      "fast_food": 3.12,
      "beer": 3.01,
      "imported_beer": 4.01,
      "coffee": 1.29,
      "soda": 0.22,
      "water_small": 0.17,
      "bus_ticket": 0.2,
      "monthly_pass": 7.35,
      "taxi_start": 0.67,
      "taxi_km": 0.22,
      "taxi_waiting": 2.12,
      "gasoline": 1.07,
      "mobile_tariff": 0.01,
      "internet": 23.75,
      "fitness": 2.67,
      "tennis": 0.89,
      "cinema": 4.46
    }
  },
  "emergency_numbers": {
    "general": "112"
  },
  "restaurants": [
    {
      "name": "DIxy Chicken",
      "type": "Burger Joint",
      "description": "DIxy Chicken is a burger joint located in the city.",
      "address": "",
      "tel": null,
      "location": {
        "lat": 33.148555,
        "lon": 73.727378
      }
    },
    {
      "name": "Nafees Restaurant",
      "type": "Pakistani Restaurant",
      "description": "Nafees Restaurant is a pakistani restaurant located in New Mīrpur.",
      "address": "Nangi Road (Shaheeza Chowk), New Mirpur-10250",
      "tel": null,
      "location": {
        "lat": 33.14860814244087,
        "lon": 73.74856427667002
      }
    },
    {
      "name": "Dixy Chicken",
      "type": "Fast Food Restaurant",
      "description": "Dixy Chicken is a fast food restaurant located in New Mīrpur.",
      "address": "Mirpur",
      "tel": null,
      "location": {
        "lat": 33.1147,
        "lon": 73.6584
      }
    },
    {
      "name": "Friend's Rooftop Café",
      "type": "Restaurant",
      "description": "Friend's Rooftop Café is a restaurant located in Islamgarh.",
      "address": "opposite Puma Petrol Pump Chakswari Road, Islamgarh-10470",
      "tel": null,
      "location": {
        "lat": 33.18529,
        "lon": 73.83214
      }
    },
    {
      "name": "KFC",
      "type": "Fried Chicken Joint",
      "description": "KFC is a fried chicken joint located in Mangla.",
      "address": "Cantt Rd, Mangla",
      "tel": null,
      "location": {
        "lat": 33.12177154596884,
        "lon": 73.62410790146122
      }
    }
  ],
  "_meta": {
    "generated_at": "2025-08-04T11:41:59.882351Z",
    "env": "development",
    "source": "justarrived-generator"
  }
}