{
  "json_language": "en",
  "country_code": "PK",
  "country_name": "Pakistan",
  "city_name": "Sukkur",
  "language": [
    "English"
  ],
  "lat": 27.7061,
  "lon": 68.8483,
  "currencies": {
    "PKR": {
      "symbol": "₨",
      "name": "Pakistani rupee"
    }
  },
  "population": 499900,
  "welcome_message_title": "Welcome to Sukkur",
  "welcome_message_body": "Welcome to Sukkur, where the Indus River flows and history comes alive. Enjoy the city's rich culture, stunning architecture, and delicious cuisine as you explore all that Sukkur has to offer.",
  "welcome_message_image": null,
  "avg_prices": {
    "city": "sukkur",
    "currency": "usd",
    "avg_price_index": 3.4636842105263157,
    "prices": {
      "meal": 1.11,
      "meal_for_two": 15.59,
      "fast_food": 4.01,
      "beer": 1.78,
      "imported_beer": 3.56,
      "coffee": 0.76,
      "soda": 0.27,
      "water_small": 0.22,
      "bus_ticket": 0.22,
      "monthly_pass": 4.46,
      "taxi_start": 0.45,
      "taxi_km": 0.18,
      "taxi_waiting": 1.29,
      "gasoline": 0.71,
      "mobile_tariff": 0.02,
      "internet": 15.59,
      "fitness": 6.68,
      "tennis": 6.68,
      "cinema": 2.23
    }
  },
  "emergency_numbers": {
    "general": "112"
  },
  "restaurants": [
    {
      "name": "KFC",
      "type": "Fried Chicken Joint",
      "description": "KFC is a fried chicken joint located in the city.",
      "address": "",
      "tel": null,
      "location": {
        "lat": 27.703036717149384,
        "lon": 68.85968063956378
      }
    },
    {
      "name": "KFC",
      "type": "Fried Chicken Joint",
      "description": "KFC is a fried chicken joint located in سکھر.",
      "address": "Sukkur (Militry Road Sukkur), سکھر",
      "tel": null,
      "location": {
        "lat": 27.70114,
        "lon": 68.846347
      }
    },
    {
      "name": "Pizza Town",
      "type": "Pizzeria",
      "description": "Pizza Town is a pizzeria located in the city.",
      "address": "",
      "tel": null,
      "location": {
        "lat": 27.70073,
        "lon": 68.84634
      }
    },
    {
      "name": "sindhri",
      "type": "Café",
      "description": "sindhri is a café located in the city.",
      "address": "",
      "tel": null,
      "location": {
        "lat": 27.716027528070548,
        "lon": 68.83473420923609
      }
    },
    {
      "name": "Hotel Al-Karim",
      "type": "Pakistani Restaurant",
      "description": "Hotel Al-Karim is a pakistani restaurant located in سکھر.",
      "address": "Near hira hospital sukkur, سکھر",
      "tel": null,
      "location": {
        "lat": 27.690932,
        "lon": 68.855548
      }
    }
  ],
  "_meta": {
    "generated_at": "2025-08-04T11:34:14.708761Z",
    "env": "development",
    "source": "justarrived-generator"
  }
}