{
  "json_language": "en",
  "country_code": "RU",
  "country_name": "Russia",
  "city_name": "Groznyy",
  "language": [
    "Russian"
  ],
  "lat": 43.3125,
  "lon": 45.6986,
  "currencies": {
    "RUB": {
      "symbol": "₽",
      "name": "Russian ruble"
    }
  },
  "population": 291687,
  "welcome_message_title": "Welcome to Groznyy",
  "welcome_message_body": "Welcome to Groznyy, where history and culture blend seamlessly in this charming city known for its stunning architecture and picturesque landscapes. We hope you have a wonderful time exploring all that Groznyy has to offer!",
  "welcome_message_image": null,
  "avg_prices": {
    "city": "groznyy",
    "currency": "usd",
    "avg_price_index": 6.418947368421053,
    "prices": {
      "meal": 8.0,
      "meal_for_two": 16.0,
      "fast_food": 7.06,
      "beer": 1.0,
      "imported_beer": 3.36,
      "coffee": 1.5,
      "soda": 0.78,
      "water_small": 0.35,
      "bus_ticket": 0.38,
      "monthly_pass": 21.04,
      "taxi_start": 1.99,
      "taxi_km": 0.13,
      "taxi_waiting": 1.73,
      "gasoline": 0.61,
      "mobile_tariff": 0.07,
      "internet": 10.37,
      "fitness": 35.59,
      "tennis": 7.0,
      "cinema": 5.0
    }
  },
  "emergency_numbers": {
    "general": "112",
    "ambulance": "103",
    "fire": "101",
    "police": "102"
  },
  "restaurants": [
    {
      "name": "Чайхана Инжир",
      "type": "Asian Restaurant",
      "description": "Чайхана Инжир is a asian restaurant located in the city.",
      "address": "",
      "tel": null,
      "location": {
        "lat": 43.30945281702103,
        "lon": 45.70093782998342
      }
    },
    {
      "name": "WASABI",
      "type": "Sushi Restaurant",
      "description": "WASABI is a sushi restaurant located in Грозный.",
      "address": "ТРЦ \"Гранд Парк\", Грозный",
      "tel": null,
      "location": {
        "lat": 43.308938894922164,
        "lon": 45.701593218422126
      }
    },
    {
      "name": "daar house",
      "type": "Restaurant",
      "description": "daar house is a restaurant located in the city.",
      "address": "",
      "tel": null,
      "location": {
        "lat": 43.32409456512255,
        "lon": 45.6918678185587
      }
    },
    {
      "name": "Жижиг & Galnash",
      "type": "Caucasian Restaurant",
      "description": "Жижиг & Galnash is a caucasian restaurant located in Грозный.",
      "address": "просп. Путина, 5, Грозный",
      "tel": null,
      "location": {
        "lat": 43.3208033149292,
        "lon": 45.686197536148825
      }
    },
    {
      "name": "васаби",
      "type": "Japanese Restaurant",
      "description": "васаби is a japanese restaurant located in the city.",
      "address": "",
      "tel": null,
      "location": {
        "lat": 43.319205,
        "lon": 45.690416
      }
    }
  ],
  "_meta": {
    "generated_at": "2025-08-04T11:36:16.794258Z",
    "env": "development",
    "source": "justarrived-generator"
  }
}