{
  "json_language": "en",
  "country_code": "RU",
  "country_name": "Russia",
  "city_name": "Kursk",
  "language": [
    "Russian"
  ],
  "lat": 51.7167,
  "lon": 36.1833,
  "currencies": {
    "RUB": {
      "symbol": "₽",
      "name": "Russian ruble"
    }
  },
  "population": 436678,
  "welcome_message_title": "Welcome to Kursk",
  "welcome_message_body": "Welcome to Kursk, a city known for its rich history and charming architecture. We invite you to explore our beautiful city and experience all it has to offer. Enjoy your stay!",
  "welcome_message_image": null,
  "avg_prices": {
    "city": "kursk",
    "currency": "usd",
    "avg_price_index": 7.634736842105263,
    "prices": {
      "meal": 8.19,
      "meal_for_two": 32.75,
      "fast_food": 6.96,
      "beer": 1.9,
      "imported_beer": 2.46,
      "coffee": 1.47,
      "soda": 0.66,
      "water_small": 0.33,
      "bus_ticket": 0.41,
      "monthly_pass": 8.52,
      "taxi_start": 1.64,
      "taxi_km": 0.41,
      "taxi_waiting": 1.97,
      "gasoline": 0.81,
      "mobile_tariff": 0.03,
      "internet": 7.78,
      "fitness": 32.75,
      "tennis": 31.11,
      "cinema": 4.91
    }
  },
  "emergency_numbers": {
    "general": "112",
    "ambulance": "103",
    "fire": "101",
    "police": "102"
  },
  "restaurants": [
    {
      "name": "Sava",
      "type": "Café",
      "description": "Sava is a café located in Курск.",
      "address": "12 Lenina ulitsa, 305000, Курск",
      "tel": "8 (960) 676-85-83",
      "location": {
        "lat": 51.733653,
        "lon": 36.191961
      }
    },
    {
      "name": "Чердак",
      "type": "Café",
      "description": "Чердак is a café located in Курск.",
      "address": "Курск",
      "tel": null,
      "location": {
        "lat": 51.738914,
        "lon": 36.1962
      }
    },
    {
      "name": "Black Bear",
      "type": "Gastropub",
      "description": "Black Bear is a gastropub located in Курск.",
      "address": "305000, Курск",
      "tel": null,
      "location": {
        "lat": 51.735264,
        "lon": 36.19273
      }
    },
    {
      "name": "Ресторан Премьер",
      "type": "Restaurant",
      "description": "Ресторан Премьер is a restaurant located in the city.",
      "address": "",
      "tel": "8 (471) 273-10-00",
      "location": {
        "lat": 51.72316765215078,
        "lon": 36.18971702811637
      }
    },
    {
      "name": "Amsterdam",
      "type": "Café",
      "description": "Amsterdam is a café located in Курск.",
      "address": "ул. Дзержинского, 19, 305000, Курск",
      "tel": "8 (471) 222-09-99",
      "location": {
        "lat": 51.727549011462024,
        "lon": 36.18762083930565
      }
    }
  ],
  "_meta": {
    "generated_at": "2025-08-04T11:34:37.736198Z",
    "env": "development",
    "source": "justarrived-generator"
  }
}