{
  "json_language": "en",
  "country_code": "RU",
  "country_name": "Russia",
  "city_name": "Murom",
  "language": [
    "Russian"
  ],
  "lat": 55.5667,
  "lon": 42.0333,
  "currencies": {
    "RUB": {
      "symbol": "₽",
      "name": "Russian ruble"
    }
  },
  "population": 104806,
  "welcome_message_title": "Welcome to Murom",
  "welcome_message_body": "Welcome to Murom, a charming city known for its rich history, beautiful architecture, and stunning views of the Oka River. We invite you to explore and enjoy all that Murom has to offer during your stay.",
  "welcome_message_image": null,
  "avg_prices": {
    "city": "murom",
    "currency": "usd",
    "avg_price_index": 8.26736842105263,
    "prices": {
      "meal": 11.46,
      "meal_for_two": 32.75,
      "fast_food": 6.14,
      "beer": 3.28,
      "imported_beer": 1.97,
      "coffee": 2.13,
      "soda": 1.23,
      "water_small": 0.98,
      "bus_ticket": 0.49,
      "monthly_pass": 24.56,
      "taxi_start": 4.09,
      "taxi_km": 0.24,
      "taxi_waiting": 6.88,
      "gasoline": 0.86,
      "mobile_tariff": 0.04,
      "internet": 7.37,
      "fitness": 24.56,
      "tennis": 21.29,
      "cinema": 6.76
    }
  },
  "emergency_numbers": {
    "general": "112",
    "ambulance": "103",
    "fire": "101",
    "police": "102"
  },
  "restaurants": [
    {
      "name": "Сатори",
      "type": "Café",
      "description": "Сатори is a café located in Муром.",
      "address": "ул. Дзержинского, 2 (3-й этаж), 602254, Муром",
      "tel": "8 (492) 349-16-77",
      "location": {
        "lat": 55.57185286427389,
        "lon": 42.02865754648878
      }
    },
    {
      "name": "Кофейня Амур",
      "type": "Café",
      "description": "Кофейня Амур is a café located in Муром.",
      "address": "602267, Муром",
      "tel": null,
      "location": {
        "lat": 55.57818300535966,
        "lon": 42.04704637180751
      }
    },
    {
      "name": "Додопицца",
      "type": "Pizzeria",
      "description": "Додопицца is a pizzeria located in the city.",
      "address": "",
      "tel": null,
      "location": {
        "lat": 55.577822,
        "lon": 42.046129
      }
    },
    {
      "name": "Ресторан \"Чайка\"",
      "type": "Restaurant",
      "description": "Ресторан \"Чайка\" is a restaurant located in Муром.",
      "address": "ул. Набережная, 32, 602267, Муром",
      "tel": "8 (492) 344-49-90",
      "location": {
        "lat": 55.57265781090569,
        "lon": 42.07048690983039
      }
    },
    {
      "name": "Сухов",
      "type": "Café",
      "description": "Сухов is a café located in the city.",
      "address": "",
      "tel": null,
      "location": {
        "lat": 55.563323157173436,
        "lon": 42.04402709008789
      }
    }
  ],
  "_meta": {
    "generated_at": "2025-08-04T11:43:54.730379Z",
    "env": "development",
    "source": "justarrived-generator"
  }
}