{
  "json_language": "en",
  "country_code": "RU",
  "country_name": "Russia",
  "city_name": "Ulan-Ude",
  "language": [
    "Russian"
  ],
  "lat": 51.8333,
  "lon": 107.6,
  "currencies": {
    "RUB": {
      "symbol": "₽",
      "name": "Russian ruble"
    }
  },
  "population": 439128,
  "welcome_message_title": "Welcome to Ulan-Ude",
  "welcome_message_body": "Welcome to Ulan-Ude, a city known for its unique blend of Russian and Buryat cultures, vibrant markets, and stunning natural landscapes. We hope you enjoy your time here and take the opportunity to explore all that this charming city has to offer.",
  "welcome_message_image": null,
  "avg_prices": {
    "city": "ulan-ude",
    "currency": "usd",
    "avg_price_index": 9.221052631578948,
    "prices": {
      "meal": 5.4,
      "meal_for_two": 40.94,
      "fast_food": 6.55,
      "beer": 3.28,
      "imported_beer": 4.91,
      "coffee": 2.46,
      "soda": 0.74,
      "water_small": 0.62,
      "bus_ticket": 0.41,
      "monthly_pass": 16.38,
      "taxi_start": 2.46,
      "taxi_km": 0.66,
      "taxi_waiting": 4.91,
      "gasoline": 0.85,
      "mobile_tariff": 0.02,
      "internet": 9.7,
      "fitness": 37.66,
      "tennis": 31.11,
      "cinema": 6.14
    }
  },
  "emergency_numbers": {
    "general": "112",
    "ambulance": "103",
    "fire": "101",
    "police": "102"
  },
  "restaurants": [
    {
      "name": "ресторан ORDA",
      "type": "Restaurant",
      "description": "ресторан ORDA is a restaurant located in the city.",
      "address": "",
      "tel": "8 (301) 244-38-38",
      "location": {
        "lat": 51.83926865619034,
        "lon": 107.59721777566259
      }
    },
    {
      "name": "Эфир",
      "type": "Café",
      "description": "Эфир is a café located in the city.",
      "address": "",
      "tel": null,
      "location": {
        "lat": 51.841792,
        "lon": 107.602303
      }
    },
    {
      "name": "New Zefir",
      "type": "Café",
      "description": "New Zefir is a café located in Улан-Удэ.",
      "address": "ул. Революции 1905 года, 11в, Улан-Удэ",
      "tel": null,
      "location": {
        "lat": 51.83312972690964,
        "lon": 107.59350491941603
      }
    },
    {
      "name": "Тэнгис",
      "type": "Restaurant",
      "description": "Тэнгис is a restaurant located in Улан-Удэ.",
      "address": "ул. Ербанова, 12, 670000, Улан-Удэ",
      "tel": "8 (301) 221-89-84",
      "location": {
        "lat": 51.83333271650939,
        "lon": 107.5865166413949
      }
    },
    {
      "name": "Mr Coffee",
      "type": "Café",
      "description": "Mr Coffee is a café located in the city.",
      "address": "",
      "tel": null,
      "location": {
        "lat": 51.826749943922785,
        "lon": 107.58950378957717
      }
    }
  ],
  "_meta": {
    "generated_at": "2025-08-04T11:34:36.343508Z",
    "env": "development",
    "source": "justarrived-generator"
  }
}