{
  "json_language": "en",
  "country_code": "TR",
  "country_name": "Turkey",
  "city_name": "Erzincan",
  "language": [
    "Turkish"
  ],
  "lat": 39.7464,
  "lon": 39.4914,
  "currencies": {
    "TRY": {
      "symbol": "₺",
      "name": "Turkish lira"
    }
  },
  "population": 150714,
  "welcome_message_title": "Welcome to Erzincan",
  "welcome_message_body": "Welcome to Erzincan, where the natural beauty of the Euphrates River and the charm of traditional Turkish culture await you. Enjoy exploring our city and all it has to offer!",
  "welcome_message_image": null,
  "avg_prices": {
    "city": "erzincan",
    "currency": "usd",
    "avg_price_index": 3.8863157894736844,
    "prices": {
      "meal": 1.48,
      "meal_for_two": 8.05,
      "fast_food": 2.68,
      "beer": 1.88,
      "imported_beer": 1.74,
      "coffee": 1.12,
      "soda": 0.35,
      "water_small": 0.13,
      "bus_ticket": 0.3,
      "monthly_pass": 19.98,
      "taxi_start": 0.32,
      "taxi_km": 0.24,
      "taxi_waiting": 0.8,
      "gasoline": 1.12,
      "mobile_tariff": 0.16,
      "internet": 8.22,
      "fitness": 13.13,
      "tennis": 9.99,
      "cinema": 2.15
    }
  },
  "emergency_numbers": {
    "ambulance": "112",
    "fire": "110",
    "police": "155"
  },
  "restaurants": [
    {
      "name": "Alaçatı Kahve Evi",
      "type": "Café",
      "description": "Alaçatı Kahve Evi is a café located in Erzincan.",
      "address": "Ordu CD, Erzincan",
      "tel": null,
      "location": {
        "lat": 39.7495713521343,
        "lon": 39.492012474349146
      }
    },
    {
      "name": "Erzincan Döner",
      "type": "Restaurant",
      "description": "Erzincan Döner is a restaurant located in Erzincan.",
      "address": "Erzincan",
      "tel": "(0446) 212 62 62",
      "location": {
        "lat": 39.748558407899004,
        "lon": 39.49134970986255
      }
    },
    {
      "name": "Seyridem Teras Cafe",
      "type": "Café",
      "description": "Seyridem Teras Cafe is a café located in Erzincan.",
      "address": "Ordu Cd. Vakıflar İşhanı Kat 2 (Ordu Cd.), Erzincan",
      "tel": "(0446) 223 44 45",
      "location": {
        "lat": 39.74732408103153,
        "lon": 39.49127957483449
      }
    },
    {
      "name": "Zeytunizade Cafe",
      "type": "Café",
      "description": "Zeytunizade Cafe is a café located in the city.",
      "address": "",
      "tel": null,
      "location": {
        "lat": 39.746385,
        "lon": 39.493579
      }
    },
    {
      "name": "Carna Cafe & Bistro",
      "type": "Cafeteria",
      "description": "Carna Cafe & Bistro is a cafeteria located in Erzincan.",
      "address": "357. Sk. No:6 (muhsin Yazıcıoğlu caddesi), 24180 Erzincan",
      "tel": null,
      "location": {
        "lat": 39.74728465996879,
        "lon": 39.49189171570534
      }
    }
  ],
  "_meta": {
    "generated_at": "2025-08-04T11:40:19.952612Z",
    "env": "development",
    "source": "justarrived-generator"
  }
}