{
  "json_language": "en",
  "country_code": "TW",
  "country_name": "Taiwan",
  "city_name": "Jincheng",
  "language": [
    "Chinese"
  ],
  "lat": 24.4167,
  "lon": 118.3167,
  "currencies": {
    "TWD": {
      "symbol": "$",
      "name": "New Taiwan dollar"
    }
  },
  "population": 42675,
  "welcome_message_title": "Welcome to Jincheng",
  "welcome_message_body": "\"Welcome to Jincheng, where traditional Taiwanese culture meets modern city charm! Get ready to immerse yourself in our beautiful coastal city known for its delicious seafood, friendly locals, and stunning views. Enjoy your stay and make the most of your time exploring all that Jincheng has to offer.\"",
  "welcome_message_image": null,
  "avg_prices": {
    "city": "jincheng",
    "currency": "usd",
    "avg_price_index": 7.445263157894737,
    "prices": {
      "meal": 2.1,
      "meal_for_two": 16.76,
      "fast_food": 4.19,
      "beer": 0.77,
      "imported_beer": 2.23,
      "coffee": 3.21,
      "soda": 0.44,
      "water_small": 0.28,
      "bus_ticket": 0.14,
      "monthly_pass": 6.15,
      "taxi_start": 1.12,
      "taxi_km": 0.34,
      "taxi_waiting": 2.51,
      "gasoline": 1.14,
      "mobile_tariff": 0.02,
      "internet": 9.5,
      "fitness": 79.15,
      "tennis": 5.12,
      "cinema": 6.29
    }
  },
  "emergency_numbers": {
    "ambulance": "119",
    "fire": "119",
    "police": "110"
  },
  "restaurants": [
    {
      "name": "Lin+ Coffee",
      "type": "Café",
      "description": "Lin+ Coffee is a café located in the city.",
      "address": "",
      "tel": "08 232 2036",
      "location": {
        "lat": 24.4324057190169,
        "lon": 118.31905206413784
      }
    },
    {
      "name": "金喜來餐廳",
      "type": "Chinese Restaurant",
      "description": "金喜來餐廳 is a chinese restaurant located in the city.",
      "address": "",
      "tel": null,
      "location": {
        "lat": 24.419507,
        "lon": 118.311043
      }
    },
    {
      "name": "源記釆豐食堂",
      "type": "Restaurant",
      "description": "源記釆豐食堂 is a restaurant located in the city.",
      "address": "",
      "tel": "",
      "location": {
        "lat": 24.429925740497776,
        "lon": 118.31812734711802
      }
    },
    {
      "name": "蚵爹之家",
      "type": "Chinese Restaurant",
      "description": "蚵爹之家 is a chinese restaurant located in the city.",
      "address": "",
      "tel": "08 232 2210",
      "location": {
        "lat": 24.431460488647893,
        "lon": 118.31853833308294
      }
    },
    {
      "name": "威尼獅義式手作廚房",
      "type": "Italian Restaurant",
      "description": "威尼獅義式手作廚房 is a italian restaurant located in the city.",
      "address": "",
      "tel": null,
      "location": {
        "lat": 24.431853657047224,
        "lon": 118.31934213638306
      }
    }
  ],
  "_meta": {
    "generated_at": "2025-08-04T11:58:56.792438Z",
    "env": "development",
    "source": "justarrived-generator"
  }
}