{
  "json_language": "en",
  "country_code": "TZ",
  "country_name": "Tanzania",
  "city_name": "Mtwara",
  "language": [
    "English"
  ],
  "lat": -10.2736,
  "lon": 40.1828,
  "currencies": {
    "TZS": {
      "symbol": "Sh",
      "name": "Tanzanian shilling"
    }
  },
  "population": 140793,
  "welcome_message_title": "Welcome to Mtwara",
  "welcome_message_body": "Welcome to Mtwara, Tanzania! Get ready to experience the city's beautiful beaches, vibrant culture, and delicious seafood. We hope you have a fantastic time exploring all that Mtwara has to offer.",
  "welcome_message_image": null,
  "avg_prices": {
    "city": "mtwara",
    "currency": "usd",
    "avg_price_index": 8.214210526315789,
    "prices": {
      "meal": 2.14,
      "meal_for_two": 24.66,
      "fast_food": 6.65,
      "beer": 1.07,
      "imported_beer": 1.72,
      "coffee": 1.8,
      "soda": 0.31,
      "water_small": 0.26,
      "bus_ticket": 0.28,
      "monthly_pass": 5.32,
      "taxi_start": 1.5,
      "taxi_km": 1.72,
      "taxi_waiting": 4.29,
      "gasoline": 1.13,
      "mobile_tariff": 0.01,
      "internet": 45.24,
      "fitness": 41.35,
      "tennis": 12.33,
      "cinema": 4.29
    }
  },
  "emergency_numbers": {
    "general": "112"
  },
  "restaurants": [
    {
      "name": "White Contena",
      "type": "Cafeteria",
      "description": "White Contena is a cafeteria located in the city.",
      "address": "",
      "tel": null,
      "location": {
        "lat": -10.272767,
        "lon": 40.187752
      }
    },
    {
      "name": "Himo 2 Restaurant",
      "type": "Breakfast Spot",
      "description": "Himo 2 Restaurant is a breakfast spot located in Mtwara.",
      "address": "Mtwara",
      "tel": null,
      "location": {
        "lat": -10.27443917613177,
        "lon": 40.18776404429167
      }
    },
    {
      "name": "Freepark pub grocery",
      "type": "African Restaurant",
      "description": "Freepark pub grocery is a african restaurant located in the city.",
      "address": "Kiwangu (Mtwara)",
      "tel": null,
      "location": {
        "lat": -10.2665,
        "lon": 40.1849
      }
    },
    {
      "name": "Makonde Beach Club",
      "type": "Seafood Restaurant",
      "description": "Makonde Beach Club is a seafood restaurant located in the city.",
      "address": "",
      "tel": null,
      "location": {
        "lat": -10.25510015356288,
        "lon": 40.17847640023269
      }
    },
    {
      "name": "Wauzaji Wa Kuku Chotara",
      "type": "Fried Chicken Joint",
      "description": "Wauzaji Wa Kuku Chotara is a fried chicken joint located in Mtwara.",
      "address": "Mtwara",
      "tel": null,
      "location": {
        "lat": -10.302214,
        "lon": 40.17303
      }
    }
  ],
  "_meta": {
    "generated_at": "2025-08-04T11:40:54.791887Z",
    "env": "development",
    "source": "justarrived-generator"
  }
}