{
  "json_language": "en",
  "country_code": "UA",
  "country_name": "Ukraine",
  "city_name": "Kherson",
  "language": [
    "Ukrainian"
  ],
  "lat": 46.6425,
  "lon": 32.625,
  "currencies": {
    "UAH": {
      "symbol": "₴",
      "name": "Ukrainian hryvnia"
    }
  },
  "population": 279131,
  "welcome_message_title": "Welcome to Kherson",
  "welcome_message_body": "Welcome to Kherson, a charming city known for its beautiful waterfront, rich history, and warm hospitality. We invite you to explore and enjoy all that this unique destination has to offer.",
  "welcome_message_image": null,
  "avg_prices": {
    "city": "kherson",
    "currency": "usd",
    "avg_price_index": 3.4421052631578952,
    "prices": {
      "meal": 6.76,
      "meal_for_two": 18.94,
      "fast_food": 3.52,
      "beer": 0.54,
      "imported_beer": 0.68,
      "coffee": 0.59,
      "soda": 0.28,
      "water_small": 0.27,
      "bus_ticket": 0.22,
      "monthly_pass": 5.41,
      "taxi_start": 0.95,
      "taxi_km": 0.2,
      "taxi_waiting": 1.62,
      "gasoline": 0.82,
      "mobile_tariff": 0.01,
      "internet": 4.92,
      "fitness": 13.98,
      "tennis": 2.71,
      "cinema": 2.98
    }
  },
  "emergency_numbers": {
    "general": "112",
    "ambulance": "103",
    "fire": "101",
    "police": "102"
  },
  "restaurants": [
    {
      "name": "Велокафе \"Peloton”",
      "type": "Café",
      "description": "Велокафе \"Peloton” is a café located in Херсон.",
      "address": "ул. Небесной Сотни, 3, Херсон, 83059",
      "tel": "050 925 4553",
      "location": {
        "lat": 46.641517371206255,
        "lon": 32.61901606108283
      }
    },
    {
      "name": "Michel",
      "type": "Restaurant",
      "description": "Michel is a restaurant located in Херсон.",
      "address": "вул. Ярослава Мудрого, 31, Херсон, 73025",
      "tel": null,
      "location": {
        "lat": 46.636028934331996,
        "lon": 32.60813826869111
      }
    },
    {
      "name": "Tati",
      "type": "Café",
      "description": "Tati is a café located in Херсон.",
      "address": "ул. Ярослава Мудрого, 12/14, Херсон, 73000",
      "tel": "0552 454 647",
      "location": {
        "lat": 46.635768,
        "lon": 32.608194
      }
    },
    {
      "name": "Bosfor",
      "type": "Turkish Restaurant",
      "description": "Bosfor is a turkish restaurant located in Херсон.",
      "address": "25 (Гоголя), Херсон",
      "tel": null,
      "location": {
        "lat": 46.63796146328583,
        "lon": 32.61354885208766
      }
    },
    {
      "name": "Булочна",
      "type": "Bakery",
      "description": "Булочна is a bakery located in Херсон.",
      "address": "вул. Маяковского, 3, Херсон",
      "tel": null,
      "location": {
        "lat": 46.640245,
        "lon": 32.611581
      }
    }
  ],
  "_meta": {
    "generated_at": "2025-08-04T11:36:27.655907Z",
    "env": "development",
    "source": "justarrived-generator"
  }
}