{
  "json_language": "en",
  "country_code": "UA",
  "country_name": "Ukraine",
  "city_name": "Melitopol",
  "language": [
    "Ukrainian"
  ],
  "lat": 46.8489,
  "lon": 35.3675,
  "currencies": {
    "UAH": {
      "symbol": "₴",
      "name": "Ukrainian hryvnia"
    }
  },
  "population": 148851,
  "welcome_message_title": "Welcome to Melitopol",
  "welcome_message_body": "Welcome to Melitopol, Ukraine! Get ready to experience the charming blend of history, culture, and natural beauty that this city is known for. We invite you to explore and enjoy all that Melitopol has to offer.",
  "welcome_message_image": null,
  "avg_prices": {
    "city": "melitopol",
    "currency": "usd",
    "avg_price_index": 3.6026315789473684,
    "prices": {
      "meal": 3.25,
      "meal_for_two": 13.53,
      "fast_food": 1.76,
      "beer": 1.35,
      "imported_beer": 1.89,
      "coffee": 1.08,
      "soda": 0.56,
      "water_small": 0.45,
      "bus_ticket": 0.22,
      "monthly_pass": 10.14,
      "taxi_start": 0.32,
      "taxi_km": 0.19,
      "taxi_waiting": 3.25,
      "gasoline": 0.88,
      "mobile_tariff": 0.03,
      "internet": 3.67,
      "fitness": 19.39,
      "tennis": 4.06,
      "cinema": 2.43
    }
  },
  "emergency_numbers": {
    "general": "112",
    "ambulance": "103",
    "fire": "101",
    "police": "102"
  },
  "restaurants": [
    {
      "name": "Троя",
      "type": "Gastropub",
      "description": "Троя is a gastropub located in the city.",
      "address": "",
      "tel": null,
      "location": {
        "lat": 46.84974518462061,
        "lon": 35.37670542496092
      }
    },
    {
      "name": "Хінкальня",
      "type": "BBQ Joint",
      "description": "Хінкальня is a bbq joint located in Мелітополь.",
      "address": "проспект Хмельницкого , 36., Мелітополь",
      "tel": "068 858 3643",
      "location": {
        "lat": 46.841739,
        "lon": 35.372532
      }
    },
    {
      "name": "Чао-какао",
      "type": "Café",
      "description": "Чао-какао is a café located in the city.",
      "address": "",
      "tel": null,
      "location": {
        "lat": 46.84355648187587,
        "lon": 35.359056668467
      }
    },
    {
      "name": "Хiнкальня (Грузинський ресторан)",
      "type": "Portuguese Restaurant",
      "description": "Хiнкальня (Грузинський ресторан) is a portuguese restaurant located in Мелітополь.",
      "address": "Богдана Хмельницкого, Мелітополь",
      "tel": null,
      "location": {
        "lat": 46.841811203989245,
        "lon": 35.37298251147977
      }
    },
    {
      "name": "Joker",
      "type": "Eastern European Restaurant",
      "description": "Joker is a eastern european restaurant located in the city.",
      "address": "",
      "tel": null,
      "location": {
        "lat": 46.860012,
        "lon": 35.379844
      }
    }
  ],
  "_meta": {
    "generated_at": "2025-08-04T11:40:27.977251Z",
    "env": "development",
    "source": "justarrived-generator"
  }
}