{
  "json_language": "en",
  "country_code": "US",
  "country_name": "United States",
  "city_name": "San Lorenzo",
  "language": [
    "English"
  ],
  "lat": 37.6733,
  "lon": -122.1332,
  "currencies": {
    "USD": {
      "symbol": "$",
      "name": "United States dollar"
    }
  },
  "population": 29453,
  "welcome_message_title": "Welcome to San Lorenzo",
  "welcome_message_body": "\"Welcome to San Lorenzo, a charming city known for its scenic views and friendly locals. We hope you have a wonderful time exploring our city and all it has to offer.\"",
  "welcome_message_image": null,
  "avg_prices": {
    "city": "san lorenzo",
    "currency": "usd",
    "avg_price_index": 6.841052631578947,
    "prices": {
      "meal": 4.15,
      "meal_for_two": 20.74,
      "fast_food": 4.15,
      "beer": 0.97,
      "imported_beer": 1.98,
      "coffee": 1.84,
      "soda": 0.88,
      "water_small": 0.47,
      "bus_ticket": 0.46,
      "monthly_pass": 34.67,
      "taxi_start": 0.69,
      "taxi_km": 1.38,
      "taxi_waiting": 3.96,
      "gasoline": 1.09,
      "mobile_tariff": 0.14,
      "internet": 16.93,
      "fitness": 13.82,
      "tennis": 16.82,
      "cinema": 4.84
    }
  },
  "emergency_numbers": {
    "general": "112"
  },
  "restaurants": [
    {
      "name": "El Rodeo",
      "type": "BBQ Joint",
      "description": "El Rodeo is a bbq joint located in Tarija.",
      "address": "Tarija",
      "tel": null,
      "location": {
        "lat": -21.534324425902003,
        "lon": -64.72589289167847
      }
    },
    {
      "name": "El Fogon De Gringo",
      "type": "Steakhouse",
      "description": "El Fogon De Gringo is a steakhouse located in Tarija.",
      "address": "Calle El Madrid, Tarija",
      "tel": null,
      "location": {
        "lat": -21.531945424075957,
        "lon": -64.73963279785404
      }
    },
    {
      "name": "La Higuera",
      "type": "Restaurant",
      "description": "La Higuera is a restaurant located in the city.",
      "address": "",
      "tel": null,
      "location": {
        "lat": -21.49102541714926,
        "lon": -64.76083139781653
      }
    },
    {
      "name": "Rincon Chapaco",
      "type": "Restaurant",
      "description": "Rincon Chapaco is a restaurant located in the city.",
      "address": "",
      "tel": null,
      "location": {
        "lat": -21.491348,
        "lon": -64.759476
      }
    },
    {
      "name": "Pizza Pazza",
      "type": "Pizzeria",
      "description": "Pizza Pazza is a pizzeria located in Tarija.",
      "address": "Tarija",
      "tel": null,
      "location": {
        "lat": -21.539620662229613,
        "lon": -64.7202090999267
      }
    }
  ],
  "_meta": {
    "generated_at": "2025-08-04T12:09:43.631698Z",
    "env": "development",
    "source": "justarrived-generator"
  }
}