{
  "json_language": "en",
  "country_code": "UZ",
  "country_name": "Uzbekistan",
  "city_name": "Navoiy",
  "language": [
    "Russian"
  ],
  "lat": 40.0844,
  "lon": 65.3792,
  "currencies": {
    "UZS": {
      "symbol": "so'm",
      "name": "Uzbekistani soʻm"
    }
  },
  "population": 144158,
  "welcome_message_title": "Welcome to Navoiy",
  "welcome_message_body": "Welcome to Navoiy, Uzbekistan! Get ready to immerse yourself in the rich history and cultural charm of this vibrant city, known for its stunning architecture and warm hospitality. We invite you to explore and enjoy all that Navoiy has to offer during your visit.",
  "welcome_message_image": null,
  "avg_prices": {
    "city": "navoiy",
    "currency": "usd",
    "avg_price_index": 4.968947368421053,
    "prices": {
      "meal": 4.43,
      "meal_for_two": 17.71,
      "fast_food": 2.94,
      "beer": 0.92,
      "imported_beer": 1.33,
      "coffee": 1.19,
      "soda": 0.56,
      "water_small": 0.22,
      "bus_ticket": 0.14,
      "monthly_pass": 11.44,
      "taxi_start": 0.47,
      "taxi_km": 0.2,
      "taxi_waiting": 5.49,
      "gasoline": 0.82,
      "mobile_tariff": 0.01,
      "internet": 26.83,
      "fitness": 11.34,
      "tennis": 5.0,
      "cinema": 3.37
    }
  },
  "emergency_numbers": {
    "general": "112"
  },
  "restaurants": [
    {
      "name": "Кафе \"золотой Петушок\"",
      "type": "Fried Chicken Joint",
      "description": "Кафе \"золотой Петушок\" is a fried chicken joint located in the city.",
      "address": "",
      "tel": null,
      "location": {
        "lat": 40.09146,
        "lon": 65.385108
      }
    },
    {
      "name": "Shams foods",
      "type": "Café",
      "description": "Shams foods is a café located in the city.",
      "address": "",
      "tel": null,
      "location": {
        "lat": 40.094232021915765,
        "lon": 65.37944877468433
      }
    },
    {
      "name": "CINEMA",
      "type": "American Restaurant",
      "description": "CINEMA is a american restaurant located in the city.",
      "address": "",
      "tel": null,
      "location": {
        "lat": 40.094810485839844,
        "lon": 65.37287902832031
      }
    },
    {
      "name": "Maestro",
      "type": "Café",
      "description": "Maestro is a café located in Navoiy.",
      "address": "Navoiy, Navoiy",
      "tel": null,
      "location": {
        "lat": 40.096787,
        "lon": 65.374783
      }
    },
    {
      "name": "La Grande",
      "type": "Modern European Restaurant",
      "description": "La Grande is a modern european restaurant located in Navoiy Shahri.",
      "address": "Navoi, Navoiy",
      "tel": null,
      "location": {
        "lat": 40.097076,
        "lon": 65.375875
      }
    }
  ],
  "_meta": {
    "generated_at": "2025-08-04T11:40:43.814287Z",
    "env": "development",
    "source": "justarrived-generator"
  }
}