{
  "json_language": "en",
  "country_code": "UZ",
  "country_name": "Uzbekistan",
  "city_name": "Nukus",
  "language": [
    "Russian"
  ],
  "lat": 42.4667,
  "lon": 59.6,
  "currencies": {
    "UZS": {
      "symbol": "so'm",
      "name": "Uzbekistani soʻm"
    }
  },
  "population": 332500,
  "welcome_message_title": "Welcome to Nukus",
  "welcome_message_body": "Welcome to Nukus, a city known for its rich history, vibrant culture, and the world-renowned Savitsky Museum. We hope you enjoy exploring all that Nukus has to offer and make unforgettable memories during your stay.",
  "welcome_message_image": null,
  "avg_prices": {
    "city": "nukus",
    "currency": "usd",
    "avg_price_index": 4.552105263157895,
    "prices": {
      "meal": 3.5,
      "meal_for_two": 10.0,
      "fast_food": 3.25,
      "beer": 1.0,
      "imported_beer": 1.25,
      "coffee": 1.42,
      "soda": 0.63,
      "water_small": 0.4,
      "bus_ticket": 0.14,
      "monthly_pass": 11.44,
      "taxi_start": 0.5,
      "taxi_km": 0.1,
      "taxi_waiting": 5.49,
      "gasoline": 0.82,
      "mobile_tariff": 0.01,
      "internet": 26.83,
      "fitness": 11.34,
      "tennis": 5.0,
      "cinema": 3.37
    }
  },
  "emergency_numbers": {
    "general": "112"
  },
  "restaurants": [
    {
      "name": "Restaurant Sofram",
      "type": "Turkish Restaurant",
      "description": "Restaurant Sofram is a turkish restaurant located in Nukus.",
      "address": "Nukus, Karakalpakistán",
      "tel": null,
      "location": {
        "lat": 42.46595,
        "lon": 59.6106
      }
    },
    {
      "name": "Cake Bumer",
      "type": "Bakery",
      "description": "Cake Bumer is a bakery located in Nukus.",
      "address": "Nukus, Karakalpakstan",
      "tel": null,
      "location": {
        "lat": 42.464273,
        "lon": 59.611624
      }
    },
    {
      "name": "Cafe Loft",
      "type": "Café",
      "description": "Cafe Loft is a café located in Nukus.",
      "address": "Jipek Joli Street, Nukus, Karakalpakstan",
      "tel": null,
      "location": {
        "lat": 42.46476,
        "lon": 59.611924
      }
    },
    {
      "name": "Karakolpagim Restaurant",
      "type": "Restaurant",
      "description": "Karakolpagim Restaurant is a restaurant located in Nukus.",
      "address": "Nukus, Republic of Karakalpakstan",
      "tel": null,
      "location": {
        "lat": 42.473656,
        "lon": 59.614243
      }
    },
    {
      "name": "Табассум кафе",
      "type": "Café",
      "description": "Табассум кафе is a café located in the city.",
      "address": "",
      "tel": null,
      "location": {
        "lat": 42.47121810913086,
        "lon": 59.61997604370117
      }
    }
  ],
  "_meta": {
    "generated_at": "2025-08-04T11:35:33.578588Z",
    "env": "development",
    "source": "justarrived-generator"
  }
}