{
  "json_language": "en",
  "country_code": "UZ",
  "country_name": "Uzbekistan",
  "city_name": "Shahrisabz",
  "language": [
    "Russian"
  ],
  "lat": 39.05,
  "lon": 66.8333,
  "currencies": {
    "UZS": {
      "symbol": "so'm",
      "name": "Uzbekistani soʻm"
    }
  },
  "population": 142700,
  "welcome_message_title": "Welcome to Shahrisabz",
  "welcome_message_body": "Welcome to Shahrisabz, a city known for its rich history, stunning architecture, and vibrant culture. We invite you to explore and enjoy the charm of this beautiful city during your visit.",
  "welcome_message_image": null,
  "avg_prices": {
    "city": "shahrisabz",
    "currency": "usd",
    "avg_price_index": 5.706842105263158,
    "prices": {
      "meal": 2.23,
      "meal_for_two": 19.44,
      "fast_food": 2.23,
      "beer": 1.2,
      "imported_beer": 2.75,
      "coffee": 0.89,
      "soda": 0.54,
      "water_small": 0.18,
      "bus_ticket": 0.15,
      "monthly_pass": 10.0,
      "taxi_start": 0.45,
      "taxi_km": 0.27,
      "taxi_waiting": 3.0,
      "gasoline": 0.91,
      "mobile_tariff": 0.02,
      "internet": 15.0,
      "fitness": 36.67,
      "tennis": 11.0,
      "cinema": 1.5
    }
  },
  "emergency_numbers": {
    "general": "112"
  },
  "restaurants": [
    {
      "name": "Кулоллик Чойхонаси",
      "type": "Asian Restaurant",
      "description": "Кулоллик Чойхонаси is a asian restaurant located in Шахрисабз.",
      "address": "Шахрисабз, Кашкадарья",
      "tel": null,
      "location": {
        "lat": 39.052419,
        "lon": 66.826714
      }
    },
    {
      "name": "MAYSA local cuisine",
      "type": "Eastern European Restaurant",
      "description": "MAYSA local cuisine is a eastern european restaurant located in Shahrisabz.",
      "address": "Shakhrisabz, Qashqadaryo Viloyati",
      "tel": null,
      "location": {
        "lat": 39.047596954873775,
        "lon": 66.82665526387494
      }
    },
    {
      "name": "Kish Mish restoran",
      "type": "Turkish Restaurant",
      "description": "Kish Mish restoran is a turkish restaurant located in the city.",
      "address": "",
      "tel": null,
      "location": {
        "lat": 39.05818712629474,
        "lon": 66.83758971289035
      }
    },
    {
      "name": "Шахрисабз ТАБАКА",
      "type": "Asian Restaurant",
      "description": "Шахрисабз ТАБАКА is a asian restaurant located in the city.",
      "address": "",
      "tel": null,
      "location": {
        "lat": 39.06045,
        "lon": 66.816718
      }
    },
    {
      "name": "Karvon",
      "type": "Restaurant",
      "description": "Karvon is a restaurant located in the city.",
      "address": "Qashqadaryo Viloyati",
      "tel": null,
      "location": {
        "lat": 39.025637,
        "lon": 66.806973
      }
    }
  ],
  "airports": null,
  "_meta": {
    "generated_at": "2025-08-04T18:11:57.063677Z",
    "env": "development",
    "source": "justarrived-generator"
  }
}