{
  "json_language": "en",
  "country_code": "XW",
  "country_name": "West Bank",
  "city_name": "Hebron",
  "language": null,
  "lat": 31.5293,
  "lon": 35.0938,
  "currencies": null,
  "population": 201063,
  "welcome_message_title": "Welcome to Hebron",
  "welcome_message_body": null,
  "welcome_message_image": null,
  "avg_prices": {
    "city": "hebron",
    "currency": "usd",
    "avg_price_index": 19.77578947368421,
    "prices": {
      "meal": 17.48,
      "meal_for_two": 87.39,
      "fast_food": 15.15,
      "beer": 7.72,
      "imported_beer": 8.16,
      "coffee": 3.57,
      "soda": 2.35,
      "water_small": 1.9,
      "bus_ticket": 1.75,
      "monthly_pass": 62.05,
      "taxi_start": 3.58,
      "taxi_km": 1.02,
      "taxi_waiting": 28.93,
      "gasoline": 2.01,
      "mobile_tariff": 0.16,
      "internet": 26.89,
      "fitness": 72.62,
      "tennis": 21.36,
      "cinema": 11.65
    }
  },
  "emergency_numbers": null,
  "restaurants": [
    {
      "name": "مطعم ابو مازن",
      "type": "BBQ Joint",
      "description": "مطعم ابو مازن is a bbq joint located in the city.",
      "address": "",
      "tel": null,
      "location": {
        "lat": 31.547991,
        "lon": 35.103858
      }
    },
    {
      "name": "Arabesque",
      "type": "Arepa Restaurant",
      "description": "Arabesque is a arepa restaurant located in الخليل.",
      "address": "Ein Sarah, الخليل",
      "tel": null,
      "location": {
        "lat": 31.540963,
        "lon": 35.099051
      }
    },
    {
      "name": "Al Burj Resturant",
      "type": "Café",
      "description": "Al Burj Resturant is a café located in الخليل.",
      "address": "الخليل",
      "tel": null,
      "location": {
        "lat": 31.548329066843554,
        "lon": 35.09619008157799
      }
    },
    {
      "name": "Ward Restaurant",
      "type": "Restaurant",
      "description": "Ward Restaurant is a restaurant located in the city.",
      "address": "",
      "tel": null,
      "location": {
        "lat": 31.531781280484008,
        "lon": 35.09155756467724
      }
    },
    {
      "name": "Hawana (هوانا)",
      "type": "Middle Eastern Restaurant",
      "description": "Hawana (هوانا) is a middle eastern restaurant located in the city.",
      "address": "",
      "tel": null,
      "location": {
        "lat": 31.53331,
        "lon": 35.098332
      }
    }
  ],
  "_meta": {
    "generated_at": "2025-08-04T11:38:21.291232Z",
    "env": "development",
    "source": "justarrived-generator"
  }
}